{"busMarkers":{"105118":{"busLines":{"L80":["I","V"],"L81":["I"]},"marker":{"city":"Barcelona","name":"Av. paral.lel (pl. espanya-lleida)","lat":"41.376765466263","lng":"2.1520424580862"}},"000421":{"busLines":{"L80":["I"],"L81":["I"],"L95":["I"],"N16":["I"]},"marker":{"city":"Barcelona","name":"\"gran via c. c. (st. roc-\"\"farell\"\")\"","lat":"41.3737897052","lng":"2.1459878428422"}},"000907":{"busLines":{"L80":["I"],"L81":["I"],"L95":["I"],"N16":["I"]},"marker":{"city":"Barcelona","name":"\"gran via c. c. (st. pere d'abanto-\"\"moian\u00e8s\"\")\"","lat":"41.372047432053","lng":"2.1436399426776"}},"000895":{"busLines":{"L80":["I"],"L81":["I"],"L95":["I"],"N16":["I"]},"marker":{"city":"Barcelona","name":"\"gran via c. c. (moian\u00e8s-\"\"mn. amadeu oller\"\").\"","lat":"41.369817774966","lng":"2.1407066182094"}},"000183":{"busLines":{"L80":["I"],"L81":["I"],"L95":["I"],"N16":["I"]},"marker":{"city":"Barcelona","name":"Gran via c. c. (av. carrilet-pl. ildefons cerd\u00e0)","lat":"41.367691167831","lng":"2.1376468001526"}},"003023":{"busLines":{"L80":["I"],"L81":["I"],"L95":["I"],"N16":["I"]},"marker":{"city":"Barcelona","name":"Gran via c. c. (passat juan gris)","lat":"41.365134791393","lng":"2.1342515188484"}},"003024":{"busLines":{"L80":["I"],"L81":["I"],"L95":["I"],"N16":["I"]},"marker":{"city":"L'hospitalet de llobregat","name":"\"av. granvia (aprestadora-\"\"alhambra\"\")\"","lat":"41.363590795099","lng":"2.1321795495213"}},"002965":{"busLines":{"L80":["I"],"L81":["I"],"L95":["I"],"N16":["I"]},"marker":{"city":"L'hospitalet de llobregat","name":"\"av. granvia (enric morera-\"\"blas fernandez lirola\"\")\"","lat":"41.361585731155","lng":"2.1295111505301"}},"000092":{"busLines":{"L80":["I"],"L81":["I"],"L95":["I"],"N16":["I"]},"marker":{"city":"L'hospitalet de llobregat","name":"\"av. granvia (\"\"igualtat\"\"-pl. europa)\"","lat":"41.360221706611","lng":"2.1276763865034"}},"002966":{"busLines":{"L80":["I"],"L81":["I"],"L95":["I"],"N16":["I"]},"marker":{"city":"L'hospitalet de llobregat","name":"Av. granvia (pl. europa-herrero)","lat":"41.358399314096","lng":"2.1252668571995"}},"001434":{"busLines":{"L80":["I"],"L81":["I"],"L95":["I"],"N16":["I"]},"marker":{"city":"L'hospitalet de llobregat","name":"\"av. granvia (sangoneres-\"\"can tries\"\")\"","lat":"41.356829130137","lng":"2.1231674018535"}},"001612":{"busLines":{"L80":["I"],"L81":["I"],"L95":["I"],"N16":["I"]},"marker":{"city":"L'hospitalet de llobregat","name":"\"av. granvia (rbla. marina-\"\"mare de d\u00e9u de bellvitge\"\")\"","lat":"41.34802912139","lng":"2.111224099596"}},"001789":{"busLines":{"L80":["I"],"L81":["I"],"L95":["I"],"N16":["I"]},"marker":{"city":"L'hospitalet de llobregat","name":"Av. granvia (rotonda acc\u00e9s resid\u00e8ncia de bellvitge)","lat":"41.345150785919","lng":"2.1062080081217"}},"100209":{"busLines":{"L80":["I"],"L81":["I"],"L86":["I"],"L87":["I"],"L94":["I"],"L95":["I"]},"marker":{"city":"El prat de llobregat","name":"Autovia castelldefels (davant major-centre comercial)","lat":"41.335896215512","lng":"2.0919885501934"}},"100220":{"busLines":{"L80":["I"],"L87":["I"],"L94":["I"],"L95":["I"]},"marker":{"city":"El prat de llobregat","name":"\"autovia castelldefels (km. 190.5-\"\"mas blau\"\")\"","lat":"41.313051658281","lng":"2.0670044412014"}},"101565":{"busLines":{"L80":["I"],"L87":["I"],"L99":["V"]},"marker":{"city":"Sant boi de llobregat","name":"Ctra. a viladecans (davant mercat de la flor )","lat":"41.30731401416","lng":"2.0590238179405"}},"108758":{"busLines":{"L80":["I"],"L87":["I"],"L99":["V"]},"marker":{"city":"Sant boi de llobregat","name":"Ctra. a viladecans (cal baleny\u00e0)","lat":"41.30571135146","lng":"2.0537263512514"}},"101566":{"busLines":{"L80":["I"],"L87":["I"],"L99":["V"]},"marker":{"city":"Viladecans","name":"Ctra. de viladecans (can sabadell)","lat":"41.303900479188","lng":"2.046382875204"}},"102055":{"busLines":{"L80":["I"],"L87":["I"],"L99":["V"]},"marker":{"city":"Viladecans","name":"Ctra. de viladecans riera mas fons c\u00ed. de cansimo","lat":"41.301552120657","lng":"2.0364702894502"}},"107293":{"busLines":{"L80":["I"],"L87":["I"],"L99":["V"]},"marker":{"city":"Viladecans","name":"\"ctra. de la vila (\"\"llobatona\"\"-av. segle xxi)\"","lat":"41.312617427272","lng":"2.0255126090241"}},"101762":{"busLines":{"L80":["I"],"L87":["I"],"L88":["I"],"L99":["V"]},"marker":{"city":"Viladecans","name":"\"ctra. de la vila (parellades \"\"jaume balmes\"\")\"","lat":"41.31625803205","lng":"2.0227508747413"}},"100558":{"busLines":{"L80":["I"],"L81":["I"],"L82":["I"],"L85":["I"],"L96":["V"],"L97":["I"],"L99":["V"],"N16":["I"]},"marker":{"city":"Viladecans","name":"\"av. generalitat (\u00e0ngel guimer\u00e0-\"\"dr. creixell\"\")\"","lat":"41.316418707763","lng":"2.0205942119289"}},"100556":{"busLines":{"L80":["I"],"L81":["I"],"L82":["I"],"L85":["I"],"L96":["V"],"L97":["I"],"L99":["V"],"N16":["I"]},"marker":{"city":"Viladecans","name":"Av. generalitat (anselm clav\u00e9-av. josep tarradellas)","lat":"41.313868036456","lng":"2.0179749956457"}},"100562":{"busLines":{"L80":["I"],"L81":["I"],"L82":["I"],"L85":["I"],"L96":["V"],"L97":["I"],"L99":["V"],"N16":["I"]},"marker":{"city":"Viladecans","name":"\"av. generalitat (santiago rusi\u00f1ol- \"\"av. dr. fleming\"\")\"","lat":"41.31050111973","lng":"2.0146022135495"}},"106377":{"busLines":{"L80":["I"],"L81":["I"],"L82":["I"],"L85":["I"],"L96":["V"],"L97":["I"],"L99":["V"],"N16":["I"]},"marker":{"city":"Gav\u00e0","name":"\"c\u00aa. bcn a sta. creu calafell (sarri\u00e0-\"\"rbla.vayreda\"\")\"","lat":"41.306262606931","lng":"2.0103790007329"}},"106466":{"busLines":{"L80":["I"],"L81":["I"],"L82":["I"],"L85":["I"],"L96":["V"],"L97":["I"],"L99":["V"],"N16":["I"]},"marker":{"city":"Gav\u00e0","name":"C\u00aa. bcn a sta. creu de calafell (american lake-olocau)","lat":"41.302967310435","lng":"2.0069175509473"}},"101772":{"busLines":{"L80":["I"],"L81":["I"],"L82":["I"],"L85":["I"],"L96":["V"],"L97":["I"],"L99":["V"],"N16":["I"]},"marker":{"city":"Gav\u00e0","name":"\"c\u00aa. bcn a sta. creu de calafell (av. riera parets-\"\"colomeres\"\")\"","lat":"41.301290938091","lng":"2.005349941911"}},"107107":{"busLines":{"L80":["I"],"L81":["I"],"L82":["I"],"L85":["I"],"N14":["V"]},"marker":{"city":"Gav\u00e0","name":"\"av. joan carles i (\"\"la pau\"\"-apel.les mestres)\"","lat":"41.301788313927","lng":"2.0006405868424"}},"107141":{"busLines":{"L80":["I"],"L81":["I"],"L82":["I"],"L85":["I"],"N14":["V"]},"marker":{"city":"Gav\u00e0","name":"Av. joan carles i (bernat metge-sant pere)","lat":"41.304011864774","lng":"1.9978487149278"}},"106514":{"busLines":{"L80":["I"],"L81":["I"],"L82":["I"],"L85":["I"],"N14":["V"]},"marker":{"city":"Gav\u00e0","name":"Sant llu\u00eds (av. joan carles i-general moragues)","lat":"41.308120445646","lng":"1.9953074507753"}},"106386":{"busLines":{"L80":["I"],"L81":["I"],"L82":["I"],"L85":["I"],"N14":["V"]},"marker":{"city":"Gav\u00e0","name":"Sant llu\u00eds (montflorit-colomeres)","lat":"41.309417938108","lng":"1.9998754455404"}},"106387":{"busLines":{"L80":["I"],"L81":["I"],"L82":["I"],"L85":["I"],"N14":["V"]},"marker":{"city":"Gav\u00e0","name":"Pl. catalunya (sant joan-sant nicasi)","lat":"41.310572044922","lng":"2.0027070491529"}},"103931":{"busLines":{"L80":["I"],"L81":["I"],"L82":["I"],"N14":["I"]},"marker":{"city":"Gav\u00e0","name":"\"rbla. pompeu fabra (\"\"av. joan xxiii\"\"-tenor vi\u00f1as)\"","lat":"41.312150532885","lng":"2.002962925612"}},"103930":{"busLines":{"L80":["I"],"L81":["I"],"L82":["I"],"N14":["I"]},"marker":{"city":"Gav\u00e0","name":"Rbla. pompeu fabra (enric morera-juli garreta)","lat":"41.312893400564","lng":"1.9990571422408"}},"103933":{"busLines":{"L80":["I"],"L81":["I"],"L82":["I"],"N14":["I"]},"marker":{"city":"Gav\u00e0","name":"\"rbla. pompeu fabra (pep ventura-\"\"joan i\"\")\"","lat":"41.31255796552","lng":"1.9956064562663"}},"109121":{"busLines":{"L80":["I"],"L81":["I"]},"marker":{"city":"Gav\u00e0","name":"Riera sant lloren\u00e7 (passat av. miguel de cervantes)","lat":"41.31418901925","lng":"1.9956621440723"}},"109122":{"busLines":{"L80":["I"],"L81":["I"]},"marker":{"city":"Gav\u00e0","name":"Riera sant lloren\u00e7 (riu francol\u00ed-riu fluvi\u00e0)","lat":"41.315506907583","lng":"1.9916053612135"}},"109123":{"busLines":{"L80":["V"],"L81":["V"]},"marker":{"city":"Gav\u00e0","name":"Riera sant lloren\u00e7 (riu fluvi\u00e0-riu francol\u00ed)","lat":"41.315273269095","lng":"1.9916166324633"}},"109124":{"busLines":{"L80":["V"],"L81":["V"]},"marker":{"city":"Gav\u00e0","name":"Riera sant lloren\u00e7 (abans joan i)","lat":"41.314038201937","lng":"1.9953046263972"}},"100502":{"busLines":{"L80":["V"],"L81":["V"],"L82":["V"],"L85":["V"],"N14":["I"]},"marker":{"city":"Gav\u00e0","name":"Av. l'erampruny\u00e0 (st. mart\u00ed-garcia lorca)","lat":"41.311491057514","lng":"1.9968337737217"}},"101851":{"busLines":{"L80":["V"],"L81":["V"],"L82":["V"],"L85":["V"],"N14":["I"]},"marker":{"city":"Gav\u00e0","name":"\"les colomeres (pi i margall-\"\"pl. font groga\"\")\"","lat":"41.309692248294","lng":"1.9999839670966"}},"106825":{"busLines":{"L80":["V"],"L81":["V"],"L82":["V"],"L85":["V"],"N14":["I"]},"marker":{"city":"Gav\u00e0","name":"\"sant pere (colomeres-\"\"montflorit\"\")\"","lat":"41.305595674241","lng":"2.0013533386495"}},"106826":{"busLines":{"L80":["V"],"L81":["V"],"L82":["V"],"L85":["V"],"N14":["I"]},"marker":{"city":"Gav\u00e0","name":"\"sant pere (ptge. mart\u00ed l'hum\u00e0-\"\"general josep moragues\"\")\"","lat":"41.304915652847","lng":"1.9982244111705"}},"107117":{"busLines":{"L80":["V"],"L81":["V"],"L82":["V"],"L85":["V"],"N14":["I"]},"marker":{"city":"Gav\u00e0","name":"\"av. joan carles i (\"\"vial enlla\u00e7 castelldefels\"\"-c\u00aa. bcn)\"","lat":"41.301620061704","lng":"2.0004654294059"}},"101658":{"busLines":{"L80":["V"],"L81":["V"],"L82":["V"],"L85":["V"],"L96":["I"],"L97":["V"],"L99":["I"],"N16":["V"]},"marker":{"city":"Gav\u00e0","name":"C\u00aa. bcn a sta. creu calafell (c\u00aa. c-234-salamanca)","lat":"41.301060796833","lng":"2.0053742227305"}},"104747":{"busLines":{"L80":["V"],"L81":["V"],"L82":["V"],"L85":["V"],"L96":["I"],"L97":["V"],"L99":["I"],"N16":["V"]},"marker":{"city":"Gav\u00e0","name":"C\u00aa. bcn a sta. creu calafell (salamanca-av. bertran i g\u00fcell)","lat":"41.302671135192","lng":"2.0069972740137"}},"101657":{"busLines":{"L80":["V"],"L81":["V"],"L82":["V"],"L85":["V"],"L96":["I"],"L97":["V"],"L99":["I"],"N16":["V"]},"marker":{"city":"Gav\u00e0","name":"\"c\u00aa. bcn a sta. creu calafell (av. bertran i g\u00fcell-\"\"rius i taulet\"\")\"","lat":"41.304341825616","lng":"2.0085970093333"}},"101656":{"busLines":{"L80":["V"],"L81":["V"],"L82":["V"],"L85":["V"],"L96":["I"],"L97":["V"],"L99":["I"],"N16":["V"]},"marker":{"city":"Gav\u00e0","name":"\"ctra. de bcn a sta. c. de calafell (\"\"rambla lluch\"\"-serrat)\"","lat":"41.306350106029","lng":"2.0106398366368"}},"100567":{"busLines":{"L80":["V"],"L81":["V"],"L82":["V"],"L85":["V"],"L96":["I"],"L97":["V"],"L99":["I"],"N16":["V"]},"marker":{"city":"Viladecans","name":"\"av. de la generalitat (limit terme municipal-\"\"fabrica roca\"\")\"","lat":"41.310478343973","lng":"2.0148194911238"}},"100565":{"busLines":{"L80":["V"],"L81":["V"],"L82":["V"],"L85":["V"],"L96":["I"],"L97":["V"],"L99":["I"],"N16":["V"]},"marker":{"city":"Viladecans","name":"\"av. generalitat (fabrica roca-\"\"agricultura\"\")\"","lat":"41.312862275186","lng":"2.0171906089796"}},"108665":{"busLines":{"L80":["V"],"L81":["V"],"L82":["V"],"L85":["V"],"L96":["I"],"L97":["V"],"L99":["I"],"N16":["V"]},"marker":{"city":"Viladecans","name":"Av. generalitat (noi del sucre-c\u00aa. de la vila)","lat":"41.315895328904","lng":"2.020250961173"}},"100574":{"busLines":{"L80":["V"],"L81":["V"],"L82":["V"],"L85":["V"],"L86":["V"],"L87":["I"],"L88":["I","V"],"L96":["I"],"L97":["V"],"L99":["I"],"N14":["V"],"N16":["V"]},"marker":{"city":"Viladecans","name":"Av. generalitat (pl. europa)","lat":"41.317980378056","lng":"2.0225004682732"}},"109218":{"busLines":{"L80":["V"],"L87":["V"],"L88":["V"],"L99":["I"]},"marker":{"city":"Viladecans","name":"C\u00aa. de la vila (jaume balmes-forja)","lat":"41.316077068082","lng":"2.0226923115002"}},"101765":{"busLines":{"L80":["V"],"L87":["V"],"L88":["V"],"L99":["I"],"VB1":["V"],"VB2":["V"]},"marker":{"city":"Viladecans","name":"\"ctra. de la vila (av. segle xxi-\"\"llobatona\"\")\"","lat":"41.312974008025","lng":"2.0250911295576"}},"101764":{"busLines":{"L80":["V"],"L87":["V"],"L99":["I"]},"marker":{"city":"Viladecans","name":"\"c\u00aa. a viladecans (c\u00aa. dels oms-\"\"c. antic bcn valencia\"\")\"","lat":"41.3020977935","lng":"2.03517039484"}},"104780":{"busLines":{"L80":["V"],"L87":["V"],"L99":["I"]},"marker":{"city":"Viladecans","name":"C\u00aa. a viladecans (davant can sabadell)","lat":"41.303785938378","lng":"2.0468308998894"}},"107118":{"busLines":{"L80":["V"],"L87":["V"],"L99":["I"]},"marker":{"city":"Sant boi de llobregat","name":"C\u00aa. a viladecans (davant cal baleny\u00e0)","lat":"41.305858085056","lng":"2.0537646773861"}},"109143":{"busLines":{"L80":["V"],"L87":["V"],"L99":["I"]},"marker":{"city":"Sant boi de llobregat","name":"C\u00aa. a viladecans (mercat de la flor)","lat":"41.307267664036","lng":"2.0592577983764"}},"104756":{"busLines":{"L80":["V"],"L87":["V"],"L94":["V"],"L95":["V"]},"marker":{"city":"El prat de llobregat","name":"Autovia castelldefels (av. onze de setembre-montsi\u00e0)","lat":"41.315740770047","lng":"2.069981039113"}},"109258":{"busLines":{"L80":["V"],"L87":["V"],"L94":["V"],"L95":["V"]},"marker":{"city":"El prat de llobregat","name":"Ctra. de ca l'alaio (passat rotonda av. remolar)","lat":"41.332610802673","lng":"2.0873682217214"}},"107116":{"busLines":{"L80":["V"],"L81":["V"],"L86":["V"],"L87":["V"],"L94":["V"],"L95":["V"]},"marker":{"city":"El prat de llobregat","name":"\"autovia castelldefels (\"\"major\"\"-mestre j. ort\u00ed)\"","lat":"41.335986066836","lng":"2.0938904179561"}},"000917":{"busLines":{"L80":["V"],"L95":["V"],"N16":["V"]},"marker":{"city":"L'hospitalet de llobregat","name":"Av. granvia (davant resid\u00e8ncia bellvitge dir.bcn)","lat":"41.344435199807","lng":"2.107684658117"}},"000916":{"busLines":{"L80":["V"],"L95":["V"],"N16":["V"]},"marker":{"city":"L'hospitalet de llobregat","name":"Av. granvia (hospital oncologic)","lat":"41.347661053798","lng":"2.1118155071088"}},"000091":{"busLines":{"L80":["V"],"L95":["V"],"N16":["V"]},"marker":{"city":"L'hospitalet de llobregat","name":"\"av. granvia (\"\"miguel hernandez\"\"-salvador espriu)\"","lat":"41.354382969525","lng":"2.1210397239111"}},"002968":{"busLines":{"L80":["V"],"L95":["V"],"N16":["V"]},"marker":{"city":"L'hospitalet de llobregat","name":"\"av. granvia (\"\"salvador espriu\"\"-av. joan carles i)\"","lat":"41.356586846019","lng":"2.1239516415861"}},"002969":{"busLines":{"L80":["V"],"L95":["V"],"N16":["V"]},"marker":{"city":"L'hospitalet de llobregat","name":"\"av. granvia (salvador espriu- \"\"av. joan carles i\"\")\"","lat":"41.357675177633","lng":"2.1254004915686"}},"000472":{"busLines":{"L80":["V"],"L95":["V"],"N16":["V"]},"marker":{"city":"L'hospitalet de llobregat","name":"\"av. granvia (\"\"pl. europa\"\"-f\u00edsica)\"","lat":"41.359214167565","lng":"2.1274624381649"}},"002970":{"busLines":{"L80":["V"],"L95":["V"],"N16":["V"]},"marker":{"city":"L'hospitalet de llobregat","name":"\"av. granvia (\"\"f\u00edsica-literatura)\"","lat":"41.360843887079","lng":"2.1295455218487"}},"002971":{"busLines":{"L80":["V"],"L95":["V"],"N16":["V"]},"marker":{"city":"L'hospitalet de llobregat","name":"\"av. granvia (f\u00edsica-\"\"literatura\"\")\"","lat":"41.362098799709","lng":"2.1312405703798"}},"000185":{"busLines":{"L80":["V"],"L95":["V"],"N16":["V"]},"marker":{"city":"L'hospitalet de llobregat","name":"\"av. granvia (\"\"literatura\"\"-escultura)\"","lat":"41.363631766087","lng":"2.1331326528593"}},"002363":{"busLines":{"L80":["V"],"L95":["V"],"N16":["V"]},"marker":{"city":"Barcelona","name":"\"gran via c. c. (\"\"radi\"\"-pl. cerd\u00e0)\"","lat":"41.365808756171","lng":"2.1358865527588"}},"001173":{"busLines":{"L80":["V"],"L95":["V"],"N16":["V"]},"marker":{"city":"Barcelona","name":"\"gran via c. c. (f\u00edsica-\"\"qu\u00edmica\"\")\"","lat":"41.36771038365","lng":"2.1384167750005"}},"000868":{"busLines":{"L80":["V"],"L95":["V"],"N16":["V"]},"marker":{"city":"Barcelona","name":"\"gran via c. c. (qu\u00edmica-\"\"mineria\"\")\"","lat":"41.36931493748","lng":"2.1404664501543"}},"000941":{"busLines":{"L80":["V"],"L95":["V"],"N16":["V"]},"marker":{"city":"Barcelona","name":"\"gran via c. c. (traj\u00e0-\"\"mandoni\"\")\"","lat":"41.371416307703","lng":"2.1431482727814"}},"001310":{"busLines":{"L80":["V"],"L95":["V"],"N16":["V"]},"marker":{"city":"Barcelona","name":"\"gran via c. c. (st. paul\u00ed de nola-\"\"sta. dorotea\"\")\"","lat":"41.373607055089","lng":"2.1460479172843"}},"101749":{"busLines":{"L81":["I"],"L86":["I"]},"marker":{"city":"Sant boi de llobregat","name":"C\u00aa. del prat (km 3)","lat":"41.333822403805","lng":"2.0729259056034"}},"106069":{"busLines":{"L81":["I"],"L86":["I"]},"marker":{"city":"Sant boi de llobregat","name":"C\u00aa. del prat (saragossa-osca)","lat":"41.33665029779","lng":"2.0522667893115"}},"107320":{"busLines":{"L81":["I"],"L86":["I"]},"marker":{"city":"Sant boi de llobregat","name":"\"c\u00aa. del prat (\"\"salines\"\"-c\u00aa. de bcn sta creu calafell)\"","lat":"41.337067222874","lng":"2.0489930348251"}},"103632":{"busLines":{"L81":["I"],"L82":["I"],"L85":["I"],"L86":["I"],"N14":["I"]},"marker":{"city":"Sant boi de llobregat","name":"Ctra. de barcelona a sta. c. de calafell (pl. europa)","lat":"41.336510320304","lng":"2.0462490701717"}},"101666":{"busLines":{"L81":["I"],"L82":["I"],"L85":["I"],"L86":["I"],"L96":["V"],"N14":["I"]},"marker":{"city":"Sant boi de llobregat","name":"C\u00aa. bcn a sta. creu calafell (pl. llobregat)","lat":"41.33453351645","lng":"2.0437580924916"}},"101665":{"busLines":{"L81":["I"],"L82":["I"],"L85":["I"],"L86":["I"],"L96":["V"],"N14":["I"]},"marker":{"city":"Sant boi de llobregat","name":"\"c\u00aa. bcn a sta. creu calafell (pl. garrigues-\"\"m\u00e0laga\"\")\"","lat":"41.332736384476","lng":"2.0414139870766"}},"101669":{"busLines":{"L81":["I"],"L82":["I"],"L85":["I"],"L86":["I"],"L96":["V"],"N14":["I"]},"marker":{"city":"Sant boi de llobregat","name":"\"c\u00aa. bcn a sta. creu calafell (\"\"riera fonollar\"\"-dr. j.castells)\"","lat":"41.330312435549","lng":"2.0380416836666"}},"101662":{"busLines":{"L81":["I"],"L82":["I"],"L85":["I"],"L86":["I"],"L96":["V"],"N14":["I"]},"marker":{"city":"Sant boi de llobregat","name":"\"c\u00aa. bcn a sta. creu calafell (\"\"mare de d\u00e9u de n\u00faria\"\"-rioja)\"","lat":"41.326580759224","lng":"2.0331122757549"}},"101677":{"busLines":{"L81":["I"],"L82":["I"],"L85":["I"],"L86":["I"],"L96":["V"],"L97":["I"],"N14":["I"],"N16":["I"]},"marker":{"city":"Viladecans","name":"C\u00aa. de barcelona (c\u00ed. fondo-ptge. tramuntana)","lat":"41.322693652367","lng":"2.027972728379"}},"104771":{"busLines":{"L81":["I"],"L82":["I"],"L85":["I"],"L86":["I"],"L96":["V"],"L97":["I"],"N14":["I"],"N16":["I"]},"marker":{"city":"Viladecans","name":"C\u00aa. de barcelona (av. torre roja-ausi\u00e0s marc)","lat":"41.320459120929","lng":"2.0250231315635"}},"106178":{"busLines":{"L81":["I"],"L82":["I"],"L85":["I"],"L96":["V"],"L97":["I"],"N16":["I"]},"marker":{"city":"Viladecans","name":"\"ctra. de barcelona (\"\"rbla. modolell\"\"-sant climent)\"","lat":"41.318283401969","lng":"2.0224767438133"}},"101676":{"busLines":{"L81":["V"],"L82":["V"],"L85":["V"],"L86":["V"],"L96":["I"],"L97":["V"],"N14":["V"],"N16":["V"]},"marker":{"city":"Viladecans","name":"\"ctra. de barcelona (ctra. del prat-\"\"st. jeroni\"\")\"","lat":"41.320419470438","lng":"2.0251901850981"}},"101675":{"busLines":{"L81":["V"],"L82":["V"],"L85":["V"],"L86":["V"],"L96":["I"],"L97":["V"],"N14":["V"],"N16":["V"]},"marker":{"city":"Viladecans","name":"\"c\u00aa. de barcelona (antonio machado-\"\"torrent fondo\"\")\"","lat":"41.322519884408","lng":"2.0279691691602"}},"101661":{"busLines":{"L81":["V"],"L82":["V"],"L85":["V"],"L86":["V"],"L96":["I"],"N14":["V"]},"marker":{"city":"Sant boi de llobregat","name":"\"c\u00aa. bcn a sta. creu calafell (l\u00edmit t.municipal-\"\"m. d. n\u00faria\"\")\"","lat":"41.326131739996","lng":"2.0330338473898"}},"101660":{"busLines":{"L81":["V"],"L82":["V"],"L85":["V"],"L86":["V"],"L96":["I"],"N14":["V"]},"marker":{"city":"Sant boi de llobregat","name":"\"c\u00aa. bcn a sta. creu calafell (dr j. castells-\"\"riera fonollar\"\")\"","lat":"41.330032722685","lng":"2.0381029672006"}},"101670":{"busLines":{"L81":["V"],"L82":["V"],"L85":["V"],"L86":["V"],"L96":["I"],"N14":["V"]},"marker":{"city":"Sant boi de llobregat","name":"\"c\u00aa. bcn a sta. creu calafell (\"\"\u00e0laba\"\"-riera roja)\"","lat":"41.332764283879","lng":"2.0418459464059"}},"101671":{"busLines":{"L81":["V"],"L82":["V"],"L85":["V"],"L86":["V"],"N14":["V"]},"marker":{"city":"Sant boi de llobregat","name":"C\u00aa. bcn a sta. creu calafell (riera roja-alacant)","lat":"41.33518418926","lng":"2.0451666890382"}},"105176":{"busLines":{"L81":["V"],"L86":["V"]},"marker":{"city":"Sant boi de llobregat","name":"\"c\u00aa. del prat (\"\"castell\u00f3\"\"-salines)\"","lat":"41.336697668507","lng":"2.0481051838228"}},"101752":{"busLines":{"L81":["V"],"L86":["V"]},"marker":{"city":"Sant boi de llobregat","name":"C\u00aa. del prat (cant\u00e0bria-av. marina)","lat":"41.336479111007","lng":"2.0520012374171"}},"104726":{"busLines":{"L81":["V"],"L86":["V"]},"marker":{"city":"El prat de llobregat","name":"C\u00aa. del prat a st. boi (can picasal dir. bcn)","lat":"41.333256376261","lng":"2.0755506802153"}},"109257":{"busLines":{"L81":["V"],"L86":["V"]},"marker":{"city":"El prat de llobregat","name":"C\u00aa. de ca l'alaio (abans rotonda av. remolar)","lat":"41.332223083757","lng":"2.0863615765983"}},"917":{"busLines":{"L81":["V"],"L86":["V"],"L87":["V"],"L94":["V"]},"marker":{"city":"L'hospitalet de llobregat","name":"Av. granvia (davant resid\u00e8ncia bellvitge dir.bcn)","lat":"41.344435199807","lng":"2.107684658117"}},"916":{"busLines":{"L81":["V"],"L86":["V"],"L87":["V"],"L94":["V"]},"marker":{"city":"L'hospitalet de llobregat","name":"Av. granvia (hospital oncologic)","lat":"41.347661053798","lng":"2.1118155071088"}},"91":{"busLines":{"L81":["V"],"L86":["V"],"L87":["V"],"L94":["V"]},"marker":{"city":"L'hospitalet de llobregat","name":"\"av. granvia (\"\"miguel hernandez\"\"-salvador espriu)\"","lat":"41.354382969525","lng":"2.1210397239111"}},"2968":{"busLines":{"L81":["V"],"L86":["V"],"L87":["V"],"L94":["V"]},"marker":{"city":"L'hospitalet de llobregat","name":"\"av. granvia (\"\"salvador espriu\"\"-av. joan carles i)\"","lat":"41.356586846019","lng":"2.1239516415861"}},"2969":{"busLines":{"L81":["V"],"L86":["V"],"L87":["V"],"L94":["V"]},"marker":{"city":"L'hospitalet de llobregat","name":"\"av. granvia (salvador espriu- \"\"av. joan carles i\"\")\"","lat":"41.357675177633","lng":"2.1254004915686"}},"472":{"busLines":{"L81":["V"],"L86":["V"],"L87":["V"],"L94":["V"]},"marker":{"city":"L'hospitalet de llobregat","name":"\"av. granvia (\"\"pl. europa\"\"-f\u00edsica)\"","lat":"41.359214167565","lng":"2.1274624381649"}},"2970":{"busLines":{"L81":["V"],"L86":["V"],"L87":["V"],"L94":["V"]},"marker":{"city":"L'hospitalet de llobregat","name":"\"av. granvia (\"\"f\u00edsica-literatura)\"","lat":"41.360843887079","lng":"2.1295455218487"}},"2971":{"busLines":{"L81":["V"],"L86":["V"],"L87":["V"],"L94":["V"]},"marker":{"city":"L'hospitalet de llobregat","name":"\"av. granvia (f\u00edsica-\"\"literatura\"\")\"","lat":"41.362098799709","lng":"2.1312405703798"}},"185":{"busLines":{"L81":["V"],"L86":["V"],"L87":["V"],"L94":["V"]},"marker":{"city":"L'hospitalet de llobregat","name":"\"av. granvia (\"\"literatura\"\"-escultura)\"","lat":"41.363631766087","lng":"2.1331326528593"}},"2363":{"busLines":{"L81":["V"],"L86":["V"],"L87":["V"],"L94":["V"]},"marker":{"city":"Barcelona","name":"\"gran via c. c. (\"\"radi\"\"-pl. cerd\u00e0)\"","lat":"41.365808756171","lng":"2.1358865527588"}},"1173":{"busLines":{"L81":["V"],"L86":["V"],"L87":["V"],"L94":["V"]},"marker":{"city":"Barcelona","name":"\"gran via c. c. (f\u00edsica-\"\"qu\u00edmica\"\")\"","lat":"41.36771038365","lng":"2.1384167750005"}},"868":{"busLines":{"L81":["V"],"L86":["V"],"L87":["V"],"L94":["V"]},"marker":{"city":"Barcelona","name":"\"gran via c. c. (qu\u00edmica-\"\"mineria\"\")\"","lat":"41.36931493748","lng":"2.1404664501543"}},"941":{"busLines":{"L81":["V"],"L86":["V"],"L87":["V"],"L94":["V"]},"marker":{"city":"Barcelona","name":"\"gran via c. c. (traj\u00e0-\"\"mandoni\"\")\"","lat":"41.371416307703","lng":"2.1431482727814"}},"1310":{"busLines":{"L81":["V"],"L86":["V"],"L87":["V"],"L94":["V"]},"marker":{"city":"Barcelona","name":"\"gran via c. c. (st. paul\u00ed de nola-\"\"sta. dorotea\"\")\"","lat":"41.373607055089","lng":"2.1460479172843"}},"109188":{"busLines":{"L82":["I","V"],"L85":["I"]},"marker":{"city":"L'hospitalet de llobregat","name":"Av. carrilet (riera blanca-aprestadora)","lat":"41.367132234795","lng":"2.1330960518157"}},"104436":{"busLines":{"L82":["I"],"L85":["I"]},"marker":{"city":"L'hospitalet de llobregat","name":"\"santa eul\u00e0lia (riera blanca-\"\"mart\u00ed codolar\"\")\"","lat":"41.369773349003","lng":"2.1313579588398"}},"104433":{"busLines":{"L82":["I"],"L85":["I"]},"marker":{"city":"L'hospitalet de llobregat","name":"Santa eul\u00e0lia (av. metro-maluquer)","lat":"41.368837317692","lng":"2.1273559331056"}},"104440":{"busLines":{"L82":["I"],"L85":["I"]},"marker":{"city":"L'hospitalet de llobregat","name":"Santa eul\u00e0lia (salvadors-corominas)","lat":"41.368155743193","lng":"2.1234450716013"}},"104435":{"busLines":{"L82":["I"],"L85":["I"]},"marker":{"city":"L'hospitalet de llobregat","name":"\"santa eul\u00e0lia (\"\"cultura\"\"-carrasco i formiguera)\"","lat":"41.367385998652","lng":"2.1199956473488"}},"102151":{"busLines":{"L82":["I"]},"marker":{"city":"L'hospitalet de llobregat","name":"Enric prat de la riba (batllori-av. ventura gassol)","lat":"41.365178734813","lng":"2.1120868156905"}},"102152":{"busLines":{"L82":["I"]},"marker":{"city":"L'hospitalet de llobregat","name":"Enric prat de la riba (estrella-rodes)","lat":"41.363952347992","lng":"2.1091206311666"}},"101323":{"busLines":{"L82":["I"]},"marker":{"city":"L'hospitalet de llobregat","name":"\"barcelona (\"\"av. isabel la cat\u00f2lica\"\"-girona)\"","lat":"41.363414270572","lng":"2.1066953420497"}},"108188":{"busLines":{"L82":["I"]},"marker":{"city":"L'hospitalet de llobregat","name":"Barcelona (mn. santiago oliveras-rbla. just oliveras)","lat":"41.362645071244","lng":"2.1029757549095"}},"101334":{"busLines":{"L82":["I"]},"marker":{"city":"L'hospitalet de llobregat","name":"Barcelona (tecla sala-xipreret)","lat":"41.361976924687","lng":"2.0992384934335"}},"106865":{"busLines":{"L82":["I"]},"marker":{"city":"L'hospitalet de llobregat","name":"Barcelona (frederic prats-alvarez de castro)","lat":"41.361111262202","lng":"2.0966902837611"}},"101549":{"busLines":{"L82":["I"]},"marker":{"city":"Cornell\u00e0 de llobregat","name":"\"c\u00aa. de l'hospitalet (alvarez de castro-\"\"rbla. solanes\"\")\"","lat":"41.360292856055","lng":"2.0941998365346"}},"101552":{"busLines":{"L82":["I"]},"marker":{"city":"Cornell\u00e0 de llobregat","name":"\"c\u00aa. de l'hospitalet (\"\"rambla solanes\"\"-c\u00ed. torrent del vidrier)\"","lat":"41.359611654026","lng":"2.0914018165968"}},"000598":{"busLines":{"L82":["I"]},"marker":{"city":"Cornell\u00e0 de llobregat","name":"C\u00aa. de l'hospitalet (dolors almeda-quintana i millas)","lat":"41.357680721072","lng":"2.0856484933436"}},"000599":{"busLines":{"L82":["I"]},"marker":{"city":"Cornell\u00e0 de llobregat","name":"C\u00aa. de l'hospitalet (c\u00ed. del quitllet-c\u00ed. pi de sentinella)","lat":"41.35670023922","lng":"2.0832022097673"}},"000357":{"busLines":{"L82":["I"]},"marker":{"city":"Cornell\u00e0 de llobregat","name":"Av. dels alps (pl. roses)","lat":"41.356855621801","lng":"2.0774011800931"}},"109237":{"busLines":{"L82":["I"],"L85":["I"],"N14":["I"]},"marker":{"city":"Cornell\u00e0 de llobregat","name":"C\u00aa. d'esplugues (joan maragall-isaac peral)","lat":"41.358215393607","lng":"2.071176090385"}},"003040":{"busLines":{"L82":["I"],"L85":["I"],"N14":["I"]},"marker":{"city":"Cornell\u00e0 de llobregat","name":"C\u00aa. de sant boi (pl. quatre camins-frederica montseny)","lat":"41.357839244236","lng":"2.0668499257872"}},"101655":{"busLines":{"L82":["I"],"L85":["I"],"N14":["I"]},"marker":{"city":"Sant boi de llobregat","name":"C\u00aa. bcn a sta. creu calafell (gasolinera oasis)","lat":"41.347776653312","lng":"2.0518887627581"}},"101654":{"busLines":{"L82":["I"],"L85":["I"],"N14":["I"]},"marker":{"city":"Sant boi de llobregat","name":"\"c\u00aa. bcn a sta. creu calafell (\"\"mn. pere tarr\u00e9s\"\"-st. joan bosco)\"","lat":"41.342327095554","lng":"2.0488279468568"}},"106070":{"busLines":{"L82":["I"],"L85":["I"],"N14":["I"]},"marker":{"city":"Sant boi de llobregat","name":"C\u00aa. bcn a sta. creu de calafell (ind\u00fastria-francesc maci\u00e0)","lat":"41.339755583768","lng":"2.0475196571067"}},"107072":{"busLines":{"L82":["I"]},"marker":{"city":"Gav\u00e0","name":"Av. l'erampruny\u00e0 (salut-joan carles i)","lat":"41.310274157464","lng":"1.9925832824678"}},"107458":{"busLines":{"L82":["I"]},"marker":{"city":"Gav\u00e0","name":"\"av. joan carles i (\"\"argila\"\"-sant llu\u00eds)\"","lat":"41.309133939685","lng":"1.9929658098164"}},"107064":{"busLines":{"L82":["V"],"L85":["V"]},"marker":{"city":"Gav\u00e0","name":"\"av. joan carles i (\"\"st. mart\u00ed\"\"-av. l'erampruny\u00e0)\"","lat":"41.308641616547","lng":"1.9944354201422"}},"107065":{"busLines":{"L82":["V"],"L85":["V"]},"marker":{"city":"Gav\u00e0","name":"Av. l'erampruny\u00e0 (salut-treball)","lat":"41.31076003471","lng":"1.9937025541354"}},"101664":{"busLines":{"L82":["V"],"L85":["V"],"N14":["V"]},"marker":{"city":"Sant boi de llobregat","name":"\"c\u00aa. bcn a sta. creu calafell (\"\"pl. europa\"\"-les salines)\"","lat":"41.338089992591","lng":"2.0474444031115"}},"105158":{"busLines":{"L82":["V"],"L85":["V"],"N14":["V"]},"marker":{"city":"Sant boi de llobregat","name":"\"c\u00aa. bcn a sta. creu calafell (\"\"osca\"\"-saragossa)\"","lat":"41.341189667203","lng":"2.048958076179"}},"000902":{"busLines":{"L82":["V"]},"marker":{"city":"Cornell\u00e0 de llobregat","name":"\"rubi\u00f3 i ors (pl. quatre camins-\"\"narc\u00eds monturiol\"\")\"","lat":"41.357437469513","lng":"2.0678275707861"}},"104166":{"busLines":{"L82":["V"]},"marker":{"city":"Cornell\u00e0 de llobregat","name":"\"rubi\u00f3 i ors (\"\"verge de montserrat\"\"-st. isidre)\"","lat":"41.354363398726","lng":"2.0722303562488"}},"000609":{"busLines":{"L82":["V"]},"marker":{"city":"Cornell\u00e0 de llobregat","name":"\"rubi\u00f3 i ors (\"\"st. isidre\"\"-st. jeroni)\"","lat":"41.354228339756","lng":"2.0740779289061"}},"000597":{"busLines":{"L82":["V"]},"marker":{"city":"Cornell\u00e0 de llobregat","name":"\"c\u00aa. de l'hospitalet (c\u00aa. prat-\"\"av. fama\"\")\"","lat":"41.355547357791","lng":"2.0805342394645"}},"101720":{"busLines":{"L82":["V"]},"marker":{"city":"Cornell\u00e0 de llobregat","name":"\"c\u00aa. de l'hospitalet (st. ferran-\"\"dolors almeda\"\")\"","lat":"41.357898821267","lng":"2.0866845586222"}},"101719":{"busLines":{"L82":["V"]},"marker":{"city":"Cornell\u00e0 de llobregat","name":"\"c\u00aa. de l'hospitalet (silici-\"\"energ\u00eda\"\")\"","lat":"41.359571083365","lng":"2.0919472006888"}},"101717":{"busLines":{"L82":["V"]},"marker":{"city":"Cornell\u00e0 de llobregat","name":"C\u00aa. de l'hospitalet (energ\u00eda-arnau mercader)","lat":"41.360132187179","lng":"2.0941309770207"}},"106867":{"busLines":{"L82":["V"]},"marker":{"city":"L'hospitalet de llobregat","name":"\"francesc moragas (pl. remunta-\"\"josep prats\"\")\"","lat":"41.360277767833","lng":"2.097796723126"}},"106868":{"busLines":{"L82":["V"]},"marker":{"city":"L'hospitalet de llobregat","name":"\"francesc moragas (josep maria sagarra-\"\"av. carrilet\"\")\"","lat":"41.358207203479","lng":"2.0994569022479"}},"106869":{"busLines":{"L82":["V"]},"marker":{"city":"L'hospitalet de llobregat","name":"Av. carrilet (ptge. milans-rbla. marina)","lat":"41.359442206913","lng":"2.103480527211"}},"102158":{"busLines":{"L82":["V"]},"marker":{"city":"L'hospitalet de llobregat","name":"Enric prat de la riba (rbla. marina-vigo)","lat":"41.361837972286","lng":"2.1037058802603"}},"103684":{"busLines":{"L82":["V"]},"marker":{"city":"L'hospitalet de llobregat","name":"Enric prat de la riba (av. fabregada-castillejos)","lat":"41.363090507773","lng":"2.1078039513566"}},"102154":{"busLines":{"L82":["V"]},"marker":{"city":"L'hospitalet de llobregat","name":"\"enric prat de la riba (mestre candi-\"\"santiago de compostela\"\")\"","lat":"41.364243659286","lng":"2.1099396111853"}},"102155":{"busLines":{"L82":["V"],"L85":["V"]},"marker":{"city":"L'hospitalet de llobregat","name":"Enric prat de la riba (m. d\u00e9u de la merc\u00e8-ciutat comtal)","lat":"41.365319638767","lng":"2.1135996421366"}},"104249":{"busLines":{"L82":["V"],"L85":["V"]},"marker":{"city":"L'hospitalet de llobregat","name":"Santa eul\u00e0lia (jardins proven\u00e7ana)","lat":"41.367279200402","lng":"2.1199833301356"}},"104248":{"busLines":{"L82":["V"]},"marker":{"city":"L'hospitalet de llobregat","name":"Santa eul\u00e0lia (\u00e0ngel guimer\u00e0 - general prim)","lat":"41.368379705043","lng":"2.1246862184956"}},"104250":{"busLines":{"L82":["V"]},"marker":{"city":"L'hospitalet de llobregat","name":"\"santa eul\u00e0lia (\"\"jacint verdaguer\"\" buenos aires)\"","lat":"41.36889944051","lng":"2.1291835619724"}},"104437":{"busLines":{"L82":["V"]},"marker":{"city":"L'hospitalet de llobregat","name":"Santa eul\u00e0lia (mart\u00ed codolar-riera blanca)","lat":"41.369763245624","lng":"2.1321210734606"}},"109226":{"busLines":{"L85":["I"]},"marker":{"city":"L'hospitalet de llobregat","name":"Canig\u00f3 (enric prat de la riba-av. josep tarradellas i joan)","lat":"41.366655671611","lng":"2.1151449708098"}},"109227":{"busLines":{"L85":["I"]},"marker":{"city":"L'hospitalet de llobregat","name":"\"av. josep tarradellas i joan (\"\"av. ventura gassol\"\"-radi)\"","lat":"41.366094458294","lng":"2.1100115916074"}},"109228":{"busLines":{"L85":["I"]},"marker":{"city":"L'hospitalet de llobregat","name":"\"av. josep tarradellas i joan (men\u00e9ndez pidal-\"\"pl. tuzla\"\")\"","lat":"41.365645832853","lng":"2.106425128178"}},"100716":{"busLines":{"L85":["I"]},"marker":{"city":"L'hospitalet de llobregat","name":"Av. josep tarradellas i joan (abans rbla. just oliveras)","lat":"41.36576961605","lng":"2.1014945542958"}},"100005":{"busLines":{"L85":["I"]},"marker":{"city":"L'hospitalet de llobregat","name":"\"av. josep tarradellas i joan (torrent de can nyac-\"\"m. peir\u00f3 victori\"\")\"","lat":"41.364477296697","lng":"2.0974762544481"}},"102200":{"busLines":{"L85":["I"]},"marker":{"city":"L'hospitalet de llobregat","name":"Estronci (c\u00ed. de la fonteta-rubidi)","lat":"41.366616249225","lng":"2.0935104922388"}},"104196":{"busLines":{"L85":["I"]},"marker":{"city":"L'hospitalet de llobregat","name":"Estronci (rubidi-cadmi)","lat":"41.36788045759","lng":"2.0917348224847"}},"101888":{"busLines":{"L85":["I"]},"marker":{"city":"L'hospitalet de llobregat","name":"\"cornell\u00e0 (ptge. llunas-\"\"via enlla\u00e7\"\")\"","lat":"41.367516130984","lng":"2.0882236713328"}},"101107":{"busLines":{"L85":["I"]},"marker":{"city":"Cornell\u00e0 de llobregat","name":"\"av. st. ildefons (\"\"av. rep\u00fablica argentina\"\"-cam\u00e8lies)\"","lat":"41.365369224346","lng":"2.0847084676737"}},"000352":{"busLines":{"L85":["I"]},"marker":{"city":"Cornell\u00e0 de llobregat","name":"\"av. st. ildefons (cam\u00e8lies-\"\"cirerer\"\")\"","lat":"41.367380321666","lng":"2.083953431709"}},"003038":{"busLines":{"L85":["I"]},"marker":{"city":"Esplugues de llobregat","name":"Av. baix llobregat (st. antoni m\u00aa claret-av. cornell\u00e0)","lat":"41.369451698722","lng":"2.0815340182401"}},"001197":{"busLines":{"L85":["I"],"N14":["I"]},"marker":{"city":"Cornell\u00e0 de llobregat","name":"C\u00aa. d'esplugues (oliverar-vegueria)","lat":"41.368469382246","lng":"2.0789723941797"}},"001653":{"busLines":{"L85":["I"],"N14":["I"]},"marker":{"city":"Cornell\u00e0 de llobregat","name":"C\u00aa. d'esplugues (dom\u00e8nech i montaner-feliu i codina)","lat":"41.366322231523","lng":"2.0766939105074"}},"001654":{"busLines":{"L85":["I"],"N14":["I"]},"marker":{"city":"Cornell\u00e0 de llobregat","name":"C\u00aa. d'esplugues (torras i bages-joan fernandez)","lat":"41.362836206782","lng":"2.0734005214877"}},"109269":{"busLines":{"L85":["I"],"N14":["I"]},"marker":{"city":"Cornell\u00e0 de llobregat","name":"Ctra. d'esplugues (passat catalunya)","lat":"41.359648338659","lng":"2.0737677017144"}},"3119":{"busLines":{"L85":["V"]},"marker":{"city":"Cornell\u00e0 de llobregat","name":"\"ctra. de sant boi (\"\"campoamor\"\"-doctor mart\u00ed i juli\u00e0)\"","lat":"41.357287346464","lng":"2.0659087035442"}},"3120":{"busLines":{"L85":["V"]},"marker":{"city":"Cornell\u00e0 de llobregat","name":"C\u00aa. d'esplugues (pius xii-pl. esgl\u00e9sia)","lat":"41.358043799345","lng":"2.071166937263"}},"3131":{"busLines":{"L85":["V"]},"marker":{"city":"Cornell\u00e0 de llobregat","name":"\"c\u00aa. d'esplugues (rbla. josep anselm clav\u00e9-\"\"josep cuxart\"\")\"","lat":"41.357770924504","lng":"2.0726433251015"}},"3122":{"busLines":{"L85":["V"]},"marker":{"city":"Cornell\u00e0 de llobregat","name":"\"c\u00aa. d'esplugues  (\"\"catalunya\"\"-av. del parc)\"","lat":"41.360245780087","lng":"2.0734118303571"}},"1200":{"busLines":{"L85":["V"]},"marker":{"city":"Cornell\u00e0 de llobregat","name":"\"c\u00aa. d'esplugues (\"\"la miranda\"\"-pare marchena)\"","lat":"41.363047868021","lng":"2.0738719102712"}},"1201":{"busLines":{"L85":["V"]},"marker":{"city":"Cornell\u00e0 de llobregat","name":"C\u00aa. d'esplugues (pl. del sol)","lat":"41.366691636613","lng":"2.0774247664341"}},"643":{"busLines":{"L85":["V"]},"marker":{"city":"Cornell\u00e0 de llobregat","name":"\"c\u00aa. d'esplugues (\"\"garrigues\"\"-av. st. ildefons)\"","lat":"41.369467813503","lng":"2.0801204394403"}},"1202":{"busLines":{"L85":["V"]},"marker":{"city":"Cornell\u00e0 de llobregat","name":"\"av. st. ildefons (\"\"avet\"\"-av. rep\u00fablica argentina).\"","lat":"41.367218540631","lng":"2.0840729566032"}},"101112":{"busLines":{"L85":["V"]},"marker":{"city":"Cornell\u00e0 de llobregat","name":"Av. rep\u00fablica argentina (pl. st. ildefons-almog\u00e0vers)","lat":"41.365035958987","lng":"2.0851637403692"}},"105108":{"busLines":{"L85":["V"]},"marker":{"city":"L'hospitalet de llobregat","name":"\"miralta (via enlla\u00e7-\"\"valeta\"\")\"","lat":"41.367466943432","lng":"2.0892926452295"}},"102915":{"busLines":{"L85":["V"]},"marker":{"city":"L'hospitalet de llobregat","name":"Sanfeliu (passat emigrant)","lat":"41.367391301148","lng":"2.0909140272249"}},"102201":{"busLines":{"L85":["V"]},"marker":{"city":"L'hospitalet de llobregat","name":"Estronci (poeta llombart-rei en jaume)","lat":"41.366502593487","lng":"2.0936810260139"}},"109222":{"busLines":{"L85":["V"]},"marker":{"city":"L'hospitalet de llobregat","name":"\"av. josep tarradellas i joan (\"\"sant joan\"\"-de la creu)\"","lat":"41.364436985722","lng":"2.0977969031321"}},"109223":{"busLines":{"L85":["V"]},"marker":{"city":"L'hospitalet de llobregat","name":"\"av. josep tarradellas i joan (\"\"rbla. just oliveras\"\"-bruc)\"","lat":"41.365447722974","lng":"2.1018158631186"}},"109224":{"busLines":{"L85":["V"]},"marker":{"city":"L'hospitalet de llobregat","name":"\"av. josep tarradellas i joan (\"\"pl. tuzla\"\"-rod\u00e9s)\"","lat":"41.365547181079","lng":"2.106967988098"}},"109225":{"busLines":{"L85":["V"]},"marker":{"city":"L'hospitalet de llobregat","name":"Av. josep tarradellas i joan (sant josep-galvany)","lat":"41.366013699274","lng":"2.1100049203579"}},"105121":{"busLines":{"L86":["I","V"],"L87":["I","V"]},"marker":{"city":"Barcelona","name":"Av. paral.lel (pl. espanya-lleida)","lat":"41.376687566911","lng":"2.1524553946213"}},"421":{"busLines":{"L86":["I"],"L87":["I"],"L94":["I"]},"marker":{"city":"Barcelona","name":"\"gran via c. c. (st. roc-\"\"farell\"\")\"","lat":"41.3737897052","lng":"2.1459878428422"}},"907":{"busLines":{"L86":["I"],"L87":["I"],"L94":["I"]},"marker":{"city":"Barcelona","name":"\"gran via c. c. (st. pere d'abanto-\"\"moian\u00e8s\"\")\"","lat":"41.372047432053","lng":"2.1436399426776"}},"895":{"busLines":{"L86":["I"],"L87":["I"],"L94":["I"]},"marker":{"city":"Barcelona","name":"\"gran via c. c. (moian\u00e8s-\"\"mn. amadeu oller\"\").\"","lat":"41.369817774966","lng":"2.1407066182094"}},"183":{"busLines":{"L86":["I"],"L87":["I"],"L94":["I"]},"marker":{"city":"Barcelona","name":"Gran via c. c. (av. carrilet-pl. ildefons cerd\u00e0)","lat":"41.367691167831","lng":"2.1376468001526"}},"3023":{"busLines":{"L86":["I"],"L87":["I"],"L94":["I"]},"marker":{"city":"Barcelona","name":"Gran via c. c. (passat juan gris)","lat":"41.365134791393","lng":"2.1342515188484"}},"3024":{"busLines":{"L86":["I"],"L87":["I"],"L94":["I"]},"marker":{"city":"L'hospitalet de llobregat","name":"\"av. granvia (aprestadora-\"\"alhambra\"\")\"","lat":"41.363590795099","lng":"2.1321795495213"}},"2965":{"busLines":{"L86":["I"],"L87":["I"],"L94":["I"]},"marker":{"city":"L'hospitalet de llobregat","name":"\"av. granvia (enric morera-\"\"blas fernandez lirola\"\")\"","lat":"41.361585731155","lng":"2.1295111505301"}},"92":{"busLines":{"L86":["I"],"L87":["I"],"L94":["I"]},"marker":{"city":"L'hospitalet de llobregat","name":"\"av. granvia (\"\"igualtat\"\"-pl. europa)\"","lat":"41.360221706611","lng":"2.1276763865034"}},"2966":{"busLines":{"L86":["I"],"L87":["I"],"L94":["I"]},"marker":{"city":"L'hospitalet de llobregat","name":"Av. granvia (pl. europa-herrero)","lat":"41.358399314096","lng":"2.1252668571995"}},"1434":{"busLines":{"L86":["I"],"L87":["I"],"L94":["I"]},"marker":{"city":"L'hospitalet de llobregat","name":"\"av. granvia (sangoneres-\"\"can tries\"\")\"","lat":"41.356829130137","lng":"2.1231674018535"}},"1612":{"busLines":{"L86":["I"],"L87":["I"],"L94":["I"]},"marker":{"city":"L'hospitalet de llobregat","name":"\"av. granvia (rbla. marina-\"\"mare de d\u00e9u de bellvitge\"\")\"","lat":"41.34802912139","lng":"2.111224099596"}},"1789":{"busLines":{"L86":["I"],"L87":["I"],"L94":["I"]},"marker":{"city":"L'hospitalet de llobregat","name":"Av. granvia (rotonda acc\u00e9s resid\u00e8ncia de bellvitge)","lat":"41.345150785919","lng":"2.1062080081217"}},"106225":{"busLines":{"L86":["I"],"L87":["I"],"L88":["I"],"VB1":["I"],"VB2":["I"],"N14":["I"]},"marker":{"city":"Viladecans","name":"\"av. francesc maci\u00e0 (\"\"c\u00aa. barcelona\"\"-pintor fortuny)\"","lat":"41.319880851577","lng":"2.0230503345234"}},"106226":{"busLines":{"L86":["I"],"L87":["I"],"L88":["I"],"VB1":["I"],"VB2":["I"],"N14":["I"]},"marker":{"city":"Viladecans","name":"Mari\u00e0 sanjuan (davant santa teresa)","lat":"41.321881040059","lng":"2.0216299320656"}},"106227":{"busLines":{"L86":["I"],"L87":["I"],"L88":["I"],"N14":["I"]},"marker":{"city":"Viladecans","name":"Mari\u00e0 sanjuan ( abans av. jocs ol\u00edmpics)","lat":"41.324791149342","lng":"2.0184024177357"}},"102040":{"busLines":{"L86":["I"],"L87":["I"],"L88":["I"],"N14":["I"]},"marker":{"city":"Viladecans","name":"\"c\u00aa. st. climent (\"\"av. jocs ol\u00edmpics\"\"-franja de ponent)\"","lat":"41.324478130166","lng":"2.016724883336"}},"106766":{"busLines":{"L86":["I"],"L87":["I"],"L88":["I"],"N14":["I"]},"marker":{"city":"Viladecans","name":"\"c\u00aa. st. climent (alzina-\"\"av. fraternitat\"\")\"","lat":"41.326702682348","lng":"2.0144134952619"}},"106767":{"busLines":{"L86":["I"],"L87":["I"],"N14":["I"]},"marker":{"city":"Viladecans","name":"Av. roureda (av. roureda-dr. reig)","lat":"41.324815666678","lng":"2.0116367578625"}},"101129":{"busLines":{"L86":["I"],"L87":["I"],"N14":["I"]},"marker":{"city":"Viladecans","name":"Av. roureda (dr. reig-circumval.laci\u00f3)","lat":"41.323162799725","lng":"2.0104576274883"}},"101128":{"busLines":{"L86":["I"],"L87":["I"],"N14":["I"]},"marker":{"city":"Viladecans","name":"\"av. roureda (circumval.laci\u00f3-\"\"circumval.laci\u00f3\"\")\"","lat":"41.321858431203","lng":"2.0087647624515"}},"107309":{"busLines":{"L86":["I"],"VB2":["I"]},"marker":{"city":"Viladecans","name":"\"av. miramar (circumval.laci\u00f3-\"\"antoni gaud\u00ed\"\")\"","lat":"41.320476980272","lng":"2.00709200085"}},"107120":{"busLines":{"L86":["I"],"VB2":["I"]},"marker":{"city":"Viladecans","name":"Gard\u00e8nies (passat nards)","lat":"41.320506599458","lng":"2.0031470630151"}},"105448":{"busLines":{"L86":["I"],"VB2":["I"]},"marker":{"city":"Viladecans","name":"\"gard\u00e8nies (\"\"ginesta\"\"-flor de taronger)\"","lat":"41.319925555648","lng":"2.0023546507992"}},"100401":{"busLines":{"L86":["I"],"L87":["I"],"VB2":["I"],"N14":["I"]},"marker":{"city":"Viladecans","name":"\"av. central d'alba-rosa (\"\"pg. magnolies\"\"-geranis)\"","lat":"41.316938127999","lng":"2.0057369388685"}},"100356":{"busLines":{"L86":["I"],"L87":["I"],"N14":["I"]},"marker":{"city":"Viladecans","name":"\"av. can batllori (\"\"assutzenes\"\"-pl. oliveres)\"","lat":"41.315367896801","lng":"2.009014848424"}},"100355":{"busLines":{"L86":["I","V"],"L87":["I","V"],"VB2":["I","V"]},"marker":{"city":"Viladecans","name":"\"av. can palmer (margarida xirgu-\"\"llu\u00eds mor\u00e9\"\")\"","lat":"41.312394730451","lng":"2.0096300379659"}},"100358":{"busLines":{"L86":["V"],"L87":["V"],"N14":["V"]},"marker":{"city":"Viladecans","name":"\"av. can batllori (ernest lluch-\"\"assutzenes\"\")\"","lat":"41.315671509276","lng":"2.0091240479876"}},"102847":{"busLines":{"L86":["V"],"L87":["V"],"N14":["V"]},"marker":{"city":"Viladecans","name":"\"margarides (\"\"pg. del tamariu\"\"-orquidies)\"","lat":"41.317151271907","lng":"2.0044612312779"}},"100866":{"busLines":{"L86":["V"],"L87":["V"],"VB1":["V"],"N14":["V"]},"marker":{"city":"Viladecans","name":"\"av. miramar (\"\"av. antoni gaud\u00ed\"\"-av. ballester)\"","lat":"41.320331126794","lng":"2.0072660297694"}},"104769":{"busLines":{"L86":["V"],"L87":["V"],"N14":["V"]},"marker":{"city":"Viladecans","name":"Av. roureda (escultor clar\u00e0-general prim)","lat":"41.321780312199","lng":"2.0086532723399"}},"104770":{"busLines":{"L86":["V"],"L87":["V"],"N14":["V"]},"marker":{"city":"Viladecans","name":"Av. roureda (dos de maig-dr. reig)","lat":"41.322856749591","lng":"2.0103832054272"}},"106768":{"busLines":{"L86":["V"],"L87":["V"],"N14":["V"]},"marker":{"city":"Viladecans","name":"Av. roureda (pi-salze)","lat":"41.325260546696","lng":"2.0123551536188"}},"106769":{"busLines":{"L86":["V"],"L87":["V"],"L88":["V"],"N14":["V"]},"marker":{"city":"Viladecans","name":"\"c\u00aa. st. climent (av. roureda-\"\"alzina\"\")\"","lat":"41.326379405281","lng":"2.0145538722402"}},"101760":{"busLines":{"L86":["V"],"L87":["V"],"L88":["V"],"N14":["V"]},"marker":{"city":"Viladecans","name":"C\u00aa. st. climent (miguel hern\u00e1ndez-av. mol\u00ed)","lat":"41.324496334012","lng":"2.0165413963014"}},"106228":{"busLines":{"L86":["V"],"L87":["V"],"L88":["V"],"N14":["V"]},"marker":{"city":"Viladecans","name":"\"c\u00aa. st. climent (\u00e0ngel ara\u00f1\u00f3-\"\"mare de d\u00e9u de sales\"\")\"","lat":"41.322458480263","lng":"2.0187162099393"}},"106229":{"busLines":{"L86":["V"],"L87":["V"],"L88":["V"],"VB1":["V"],"VB2":["V"],"N14":["V"]},"marker":{"city":"Viladecans","name":"Av. francesc maci\u00e0 (cinto verdaguer-les sitges)","lat":"41.319906365799","lng":"2.0226477319192"}},"104381":{"busLines":{"L86":["V"],"L87":["V"],"L88":["V"],"N14":["V"]},"marker":{"city":"Viladecans","name":"\"sant climent (les sitges-\"\"ptge. dr. ros\"\")\"","lat":"41.318610776909","lng":"2.0214695414974"}},"105469":{"busLines":{"L87":["I"],"N14":["I"]},"marker":{"city":"Viladecans","name":"Canonge dr. auguet (av. ballester-andreu nin)","lat":"41.319589534748","lng":"2.0090900792499"}},"105470":{"busLines":{"L87":["I"],"N14":["I"]},"marker":{"city":"Viladecans","name":"\"canonge dr. auguet (av. antoni gaud\u00ed-\"\"josep pallach\"\")\"","lat":"41.318452621809","lng":"2.0071328352175"}},"106233":{"busLines":{"L88":["I","V"],"VB1":["I","V"],"VB2":["I","V"]},"marker":{"city":"Viladecans","name":"\"pl. estaci\u00f3 \"\"renfe\"\"\"","lat":"41.311411231737","lng":"2.0283318406941"}},"107996":{"busLines":{"L88":["I"],"VB1":["I"],"VB2":["I"]},"marker":{"city":"Viladecans","name":"\"catalunya (\"\"tecnologia\"\"-ci\u00e8ncia)\"","lat":"41.31534814634","lng":"2.0315690216232"}},"109217":{"busLines":{"L88":["I"],"VB1":["V"],"VB2":["V"]},"marker":{"city":"Viladecans","name":"\"av. segle xxi (\"\"av. germans gabrielistes\"\"-c\u00aa. de la vila)\"","lat":"41.314562088944","lng":"2.0255176705165"}},"107131":{"busLines":{"L88":["I"]},"marker":{"city":"Sant climent de llobregat","name":"C\u00aa. a viladecans (davant pol. ind. roquetes )","lat":"41.332711844542","lng":"2.0073590788912"}},"107134":{"busLines":{"L88":["I"]},"marker":{"city":"Sant climent de llobregat","name":"Trav. prat de la riba (can molins)","lat":"41.335493236821","lng":"2.0034317116375"}},"107135":{"busLines":{"L88":["I"]},"marker":{"city":"Sant climent de llobregat","name":"Trav. prat de la riba (can bonet)","lat":"41.338826009688","lng":"2.0006700501497"}},"109293":{"busLines":{"L88":["I"]},"marker":{"city":"Sant climent de llobregat","name":"C\u00ed. cal mar\u00ed (ceip sant climent)","lat":"41.33935172814","lng":"1.9961578612788"}},"109294":{"busLines":{"L88":["I"]},"marker":{"city":"Sant climent de llobregat","name":"C\u00ed. cal mar\u00ed (abans padr\u00f3)","lat":"41.335861366774","lng":"1.9941464557938"}},"109500":{"busLines":{"L88":["I","V"]},"marker":{"city":"Sant climent de llobregat","name":"La rodera","lat":"41.336573649842","lng":"1.9976922059297"}},"109550":{"busLines":{"L88":["V"]},"marker":{"city":"Sant climent de llobregat","name":"Cam\u00ed cal mar\u00ed (passat padr\u00f3)","lat":"41.336253509514","lng":"1.9941258253682"}},"109295":{"busLines":{"L88":["V"]},"marker":{"city":"Sant climent de llobregat","name":"Cam\u00ed cal mar\u00ed (davant ceip sant climent)","lat":"41.338964852225","lng":"1.9956620099313"}},"109264":{"busLines":{"L88":["V"]},"marker":{"city":"Sant climent de llobregat","name":"Pl. de la vila (davant ajuntament)","lat":"41.339208520599","lng":"1.9970487686498"}},"109260":{"busLines":{"L88":["V"]},"marker":{"city":"Sant climent de llobregat","name":"Trav. prat de la riba  (abans sant albert)","lat":"41.338664730354","lng":"2.0005518588905"}},"107133":{"busLines":{"L88":["V"]},"marker":{"city":"Sant climent de llobregat","name":"\"trav. prat de la riba (\"\"moll\"\"-av. pedrera)\"","lat":"41.335316817793","lng":"2.0034600953144"}},"107132":{"busLines":{"L88":["V"]},"marker":{"city":"Sant climent de llobregat","name":"C\u00aa. a viladecans (pol. ind. roquetes)","lat":"41.332578929664","lng":"2.0071022504368"}},"107121":{"busLines":{"L88":["V"]},"marker":{"city":"Viladecans","name":"\"c\u00aa. st. climent (mass\u00eds de montserrat-\"\"mass\u00eds de guilleries\"\")\"","lat":"41.327447935832","lng":"2.0134152831877"}},"108935":{"busLines":{"L94":["I","V"],"L95":["I","V"],"N14":["I","V"],"N16":["I","V"]},"marker":{"city":"Barcelona","name":"Rda. universitat (rbla. catalunya-balmes)","lat":"41.388729472963","lng":"2.1680530783607"}},"105416":{"busLines":{"L94":["I"],"L95":["I"]},"marker":{"city":"Barcelona","name":"Sep\u00falveda (pl. goya)","lat":"41.38572680291","lng":"2.1644184657652"}},"109046":{"busLines":{"L94":["I"],"L95":["I"]},"marker":{"city":"Barcelona","name":"Sep\u00falveda (comte urgell-comte borrell)","lat":"41.382717314295","lng":"2.160442872618"}},"1255":{"busLines":{"L94":["I"]},"marker":{"city":"Barcelona","name":"Sep\u00falveda (cal\u00e0bria-rocafort)","lat":"41.380259919451","lng":"2.157144445858"}},"776":{"busLines":{"L94":["I"]},"marker":{"city":"Barcelona","name":"Sep\u00falveda (vilamar\u00ed-llan\u00e7\u00e0)","lat":"41.377615270673","lng":"2.1536120060617"}},"108":{"busLines":{"L94":["I"]},"marker":{"city":"Barcelona","name":"\"gran via c. c. (pl. espanya-\"\"c\u00aa. bordeta\"\")\"","lat":"41.376272580551","lng":"2.1491439398258"}},"1611":{"busLines":{"L94":["I"]},"marker":{"city":"L'hospitalet de llobregat","name":"Av. granvia (davant rbla. marina)","lat":"41.35015897099","lng":"2.1133687192614"}},"107140":{"busLines":{"L94":["I"],"L95":["I"]},"marker":{"city":"Viladecans","name":"\"autovia castelldefels (c\u00ed. serral llarg-\"\"c\u00ed. de les serres\"\")\"","lat":"41.276273958601","lng":"2.0474027637958"}},"100214":{"busLines":{"L94":["I"],"L95":["I"]},"marker":{"city":"Gav\u00e0","name":"Autovia castelldefels (lim.ter.mun.-c\u00ed. parets a la murtra)","lat":"41.274087373545","lng":"2.0394787261337"}},"100215":{"busLines":{"L94":["I"]},"marker":{"city":"Gav\u00e0","name":"Autovia castelldefels (escales pas superior)","lat":"41.273442968929","lng":"2.033261359491"}},"100222":{"busLines":{"L94":["I"]},"marker":{"city":"Gav\u00e0","name":"Autovia castelldefels (nou rals-av. del mar)","lat":"41.272454347978","lng":"2.0213867345057"}},"100216":{"busLines":{"L94":["I"]},"marker":{"city":"Gav\u00e0","name":"Autovia castelldefels (abans cam\u00ed d'agull\u00e9)","lat":"41.271477528289","lng":"2.0120405564241"}},"100377":{"busLines":{"L94":["I"]},"marker":{"city":"Castelldefels","name":"\"av. castelldefels (\"\"c\u00ed. de la pava\"\"-canal ol\u00edmpic)\"","lat":"41.271398028682","lng":"2.0006480934481"}},"107476":{"busLines":{"L94":["I"]},"marker":{"city":"Castelldefels","name":"Av. castelldefels (manresa-lliri)","lat":"41.271674212553","lng":"1.986850758872"}},"100385":{"busLines":{"L94":["I"]},"marker":{"city":"Castelldefels","name":"Av. castelldefels (pl. rosa dels vents)","lat":"41.271751361631","lng":"1.9827965144318"}},"105215":{"busLines":{"L94":["I"],"L95":["I"],"L96":["V"],"N16":["I"]},"marker":{"city":"Castelldefels","name":"Pg. de la marina (carrer n\u00ba 10-carrer n\u00ba 9)","lat":"41.269612532925","lng":"1.9811928054673"}},"105216":{"busLines":{"L94":["I"],"L95":["I"],"L96":["V"],"N16":["I"]},"marker":{"city":"Castelldefels","name":"Pg. de la marina (carrer n\u00ba 6-carrer n\u00ba 5)","lat":"41.269587280373","lng":"1.9769041653597"}},"103291":{"busLines":{"L94":["I"],"L95":["I"],"L96":["V"],"N16":["I"]},"marker":{"city":"Castelldefels","name":"Pg. mar\u00edtim (carrer n\u00ba 5-carrer n\u00ba 4)","lat":"41.267693412045","lng":"1.9753590465397"}},"103287":{"busLines":{"L94":["I"],"L95":["I"],"L96":["V"],"N16":["I"]},"marker":{"city":"Castelldefels","name":"Pg. mar\u00edtim (av. dels banys-av. de la platja)","lat":"41.267814574421","lng":"1.9707083118356"}},"107123":{"busLines":{"L94":["I"],"L95":["I"],"L96":["V"],"N16":["I"]},"marker":{"city":"Castelldefels","name":"\"pg. mar\u00edtim (les barques-\"\"navegants\"\")\"","lat":"41.267688512304","lng":"1.9646992518403"}},"103290":{"busLines":{"L94":["I"],"L95":["I"],"L96":["V"],"N16":["I"]},"marker":{"city":"Castelldefels","name":"\"pg. mar\u00edtim (avet-\"\"equador\"\")\"","lat":"41.267582044531","lng":"1.9598999505398"}},"107124":{"busLines":{"L94":["I"],"L95":["I"],"L96":["V"],"N16":["I"]},"marker":{"city":"Castelldefels","name":"\"pg. mar\u00edtim (ptge. tim\u00f3-\"\"xile\"\")\"","lat":"41.267058163196","lng":"1.9539314367027"}},"106967":{"busLines":{"L94":["I"],"L95":["I"]},"marker":{"city":"Castelldefels","name":"\"av. eucaliptus (pg. tarongers-\"\"av. bellamar\"\")\"","lat":"41.270077377019","lng":"1.9535928962236"}},"100423":{"busLines":{"L94":["I"],"L95":["I"],"N16":["V"]},"marker":{"city":"Castelldefels","name":"Av. constituci\u00f3 (av. del pinar-pg. dels til.lers)","lat":"41.268588506266","lng":"1.9505242548493"}},"101008":{"busLines":{"L94":["I"],"L95":["I"],"N16":["V"]},"marker":{"city":"Castelldefels","name":"\"av. del poal (pg. tarongers-\"\"joaquim ruyra\"\")\"","lat":"41.269193548501","lng":"1.9462153320567"}},"106968":{"busLines":{"L94":["I"],"L95":["I","V"],"N16":["V"]},"marker":{"city":"Castelldefels","name":"\"av. del poal (joaquim ruyra-\"\"pl. p\u00edo baroja\"\")\"","lat":"41.270575704497","lng":"1.9455051750764"}},"103304":{"busLines":{"L94":["I"]},"marker":{"city":"Les botigues de sitges","name":"\"pg. mar\u00edtim (\"\"cova fumada\"\"-aiguapuda)\"","lat":"41.266310933479","lng":"1.9443790726276"}},"105081":{"busLines":{"L94":["I"]},"marker":{"city":"Les botigues de sitges","name":"\"pg. mar\u00edtim (\"\"aiguapuda\"\"-ptge. ferrocarril)\"","lat":"41.265902346538","lng":"1.9403385105531"}},"105086":{"busLines":{"L94":["I"]},"marker":{"city":"Les botigues de sitges","name":"\"pg. mar\u00edtim (ptge. ferrocarril-\"\"ferrocarril\"\")\"","lat":"41.265327637797","lng":"1.9365791046079"}},"105083":{"busLines":{"L94":["I","V"]},"marker":{"city":"Les botigues de sitges","name":"Pg. mar\u00edtim (entrada port ginesta)","lat":"41.264326377798","lng":"1.9319437090393"}},"105082":{"busLines":{"L94":["V"]},"marker":{"city":"Les botigues de sitges","name":"Pg. mar\u00edtim (rafols-ptge. ferrocarril)","lat":"41.265205995916","lng":"1.9365739035336"}},"105084":{"busLines":{"L94":["V"]},"marker":{"city":"Les botigues de sitges","name":"Pg. mar\u00edtim (ptge. ferrocarril-aiguapuda)","lat":"41.265772636878","lng":"1.940270996112"}},"106977":{"busLines":{"L94":["V"]},"marker":{"city":"Les botigues de sitges","name":"Pg. mar\u00edtim (aiguapuda-cova fumada)","lat":"41.266179830174","lng":"1.9444451735199"}},"106444":{"busLines":{"L94":["V"],"L95":["I","V"],"N16":["I"]},"marker":{"city":"Castelldefels","name":"Carles riba (josep m\u00aa sagarra-av. poal)","lat":"41.26905037386","lng":"1.9458485104617"}},"100516":{"busLines":{"L94":["V"],"L95":["V"],"L96":["I","V"],"L97":["I","V"],"N16":["I","V"]},"marker":{"city":"Castelldefels","name":"\"av. eucaliptus (\"\"av. bellamar\"\"-pg. tarongers)\"","lat":"41.270263802286","lng":"1.9534942040295"}},"107001":{"busLines":{"L94":["V"],"L95":["V"],"L96":["I"],"N16":["V"]},"marker":{"city":"Castelldefels","name":"\"pg. mar\u00edtim (\"\"davant xile\"\"-tim\u00f3)\"","lat":"41.266948761578","lng":"1.9537178853888"}},"103289":{"busLines":{"L94":["V"],"L95":["V"],"L96":["I"],"N16":["V"]},"marker":{"city":"Castelldefels","name":"Pg. mar\u00edtim (davant equador)","lat":"41.267394807581","lng":"1.9596631969041"}},"103299":{"busLines":{"L94":["V"],"L95":["V"],"L96":["I"],"N16":["V"]},"marker":{"city":"Castelldefels","name":"\"pg. mar\u00edtim (navegants-\"\"carrer n\u00ba 514\"\")\"","lat":"41.267535851316","lng":"1.9652172364836"}},"105218":{"busLines":{"L94":["V"],"L95":["V"],"L96":["I"],"N16":["V"]},"marker":{"city":"Castelldefels","name":"Pg. mar\u00edtim (av. de la platja-av. dels banys)","lat":"41.267706732585","lng":"1.9710929472628"}},"101480":{"busLines":{"L94":["V"],"L95":["V"],"L96":["I"],"N16":["V"]},"marker":{"city":"Castelldefels","name":"\"pg. mar\u00edtim (\"\"carrer n\u00ba 5 bis\"\"-carrer n\u00ba 6)\"","lat":"41.267430969609","lng":"1.9756641439261"}},"105557":{"busLines":{"L94":["V"],"L95":["V"],"L96":["I"],"N16":["V"]},"marker":{"city":"Castelldefels","name":"\"carrer 7 (pg. mar\u00edtim-\"\"pg. garb\u00ed\"\")\"","lat":"41.268427789167","lng":"1.9786893036584"}},"105217":{"busLines":{"L94":["V"],"L95":["V"],"L96":["I"],"N16":["V"]},"marker":{"city":"Castelldefels","name":"Pg. de la marina (carrer n\u00ba 9-carrer n\u00ba 10)","lat":"41.269521501292","lng":"1.981375966749"}},"107000":{"busLines":{"L94":["V"]},"marker":{"city":"Castelldefels","name":"Av. de castelldefels (davant carrer 11)","lat":"41.271349572508","lng":"1.9834415548841"}},"100380":{"busLines":{"L94":["V"]},"marker":{"city":"Castelldefels","name":"Av. castelldefels (carrer n\u00ba 16-carrer n\u00ba 17)","lat":"41.271233730867","lng":"1.993008395161"}},"100204":{"busLines":{"L94":["V"]},"marker":{"city":"Gav\u00e0","name":"\"autovia castelldefels (\"\"salou\"\"-garraf)\"","lat":"41.271265233485","lng":"2.0123530552232"}},"107137":{"busLines":{"L94":["V"],"L95":["V"]},"marker":{"city":"Gav\u00e0","name":"\"autovia castelldefels (\"\"begur\"\"-pas elevat)\"","lat":"41.273426908987","lng":"2.0372587986813"}},"100205":{"busLines":{"L94":["V"],"L95":["V"]},"marker":{"city":"Viladecans","name":"Autovia castelldefels (b. alegre-c\u00ed. serral llarg)","lat":"41.27671370817","lng":"2.0486190131591"}},"334":{"busLines":{"L94":["V"]},"marker":{"city":"L'hospitalet de llobregat","name":"Av. granvia (davant rbla. marina dir.bcn)","lat":"41.349253974327","lng":"2.1144919471495"}},"389":{"busLines":{"L94":["V"]},"marker":{"city":"Barcelona","name":"\"gran via c. c. (m\u00e8xic-\"\"pl. espanya\"\")\"","lat":"41.376139387713","lng":"2.1496303163468"}},"1559":{"busLines":{"L94":["V"]},"marker":{"city":"Barcelona","name":"Gran via c. c. (llan\u00e7\u00e0-vilamar\u00ed)","lat":"41.378244880345","lng":"2.1524166999029"}},"1254":{"busLines":{"L94":["V"]},"marker":{"city":"Barcelona","name":"Gran via c. c. (enten\u00e7a-rocafort)","lat":"41.380217605389","lng":"2.1548239241952"}},"1556":{"busLines":{"L94":["V"]},"marker":{"city":"Barcelona","name":"Gran via c. c. (cal\u00e0bria-viladomat)","lat":"41.381942646189","lng":"2.1570566768982"}},"1469":{"busLines":{"L94":["V"]},"marker":{"city":"Barcelona","name":"Gran via c. c. (comte borrell-comte d'urgell)","lat":"41.383600534663","lng":"2.1593161734918"}},"927":{"busLines":{"L94":["V"]},"marker":{"city":"Barcelona","name":"\"gran via c. c. (casanova-\"\"muntaner\"\")\"","lat":"41.386104782807","lng":"2.1626190439209"}},"1075":{"busLines":{"L94":["V"]},"marker":{"city":"Barcelona","name":"Gran via c. c. (pl. universitat)","lat":"41.387931720284","lng":"2.1650644192569"}},"001255":{"busLines":{"L95":["I"]},"marker":{"city":"Barcelona","name":"Sep\u00falveda (cal\u00e0bria-rocafort)","lat":"41.380259919451","lng":"2.157144445858"}},"000776":{"busLines":{"L95":["I"]},"marker":{"city":"Barcelona","name":"Sep\u00falveda (vilamar\u00ed-llan\u00e7\u00e0)","lat":"41.377615270673","lng":"2.1536120060617"}},"000108":{"busLines":{"L95":["I"],"N16":["I"]},"marker":{"city":"Barcelona","name":"\"gran via c. c. (pl. espanya-\"\"c\u00aa. bordeta\"\")\"","lat":"41.376272580551","lng":"2.1491439398258"}},"001611":{"busLines":{"L95":["I"],"N16":["I"]},"marker":{"city":"L'hospitalet de llobregat","name":"Av. granvia (davant rbla. marina)","lat":"41.35015897099","lng":"2.1133687192614"}},"109557":{"busLines":{"L95":["I"]},"marker":{"city":"Gav\u00e0","name":"Av. europa (passat pals)","lat":"41.272713650489","lng":"2.0382225177854"}},"105624":{"busLines":{"L95":["I"]},"marker":{"city":"Gav\u00e0","name":"\"av. europa (\"\"begur\"\"-premi\u00e0)\"","lat":"41.272789190098","lng":"2.035514932473"}},"106471":{"busLines":{"L95":["I"]},"marker":{"city":"Gav\u00e0","name":"\"av. europa (\"\"premi\u00e0\"\"-arenys)\"","lat":"41.272662237538","lng":"2.03374594563"}},"106472":{"busLines":{"L95":["I"]},"marker":{"city":"Gav\u00e0","name":"\"av. europa (\"\"cadaqu\u00e9s\"\"-blanes)\"","lat":"41.272296095873","lng":"2.0300314579264"}},"100518":{"busLines":{"L95":["I"]},"marker":{"city":"Gav\u00e0","name":"Av. europa (blanes-palam\u00f2s)","lat":"41.271900479074","lng":"2.0259528817862"}},"100521":{"busLines":{"L95":["I"]},"marker":{"city":"Gav\u00e0","name":"Av. europa (palam\u00f2s-roses)","lat":"41.271598284069","lng":"2.0230522301184"}},"100522":{"busLines":{"L95":["I"]},"marker":{"city":"Gav\u00e0","name":"Av. europa (av. mar-garraf)","lat":"41.27132818796","lng":"2.0199152177689"}},"100524":{"busLines":{"L95":["I"]},"marker":{"city":"Gav\u00e0","name":"\"av. europa (garraf-\"\"palafrugell\"\")\"","lat":"41.270893702317","lng":"2.0156940662259"}},"106469":{"busLines":{"L95":["I"]},"marker":{"city":"Gav\u00e0","name":"Av. europa (salou-tamarit)","lat":"41.270490532727","lng":"2.0111181942005"}},"100525":{"busLines":{"L95":["I"]},"marker":{"city":"Gav\u00e0","name":"\"av. europa (sitges-\"\"alcanar\"\")\"","lat":"41.270389798269","lng":"2.0049607852231"}},"108845":{"busLines":{"L95":["I"]},"marker":{"city":"Castelldefels","name":"\"pg. de la marina (\"\"llevant\"\"-carrer n\u00ba 22)\"","lat":"41.269514618554","lng":"2.0015206709501"}},"108846":{"busLines":{"L95":["I"]},"marker":{"city":"Castelldefels","name":"\"pg. de la marina (carrer n\u00ba 21-\"\"diagonal orient\"\")\"","lat":"41.269533184968","lng":"1.9981192168588"}},"106962":{"busLines":{"L95":["I"]},"marker":{"city":"Castelldefels","name":"Pg. de la marina (carrer n\u00ba 18-carrer n\u00ba 17)","lat":"41.269581110072","lng":"1.9934173291314"}},"107138":{"busLines":{"L95":["I"]},"marker":{"city":"Castelldefels","name":"\"av. del canal ol\u00edmpic (av. castelldefels-\"\"pg. pitort\"\")\"","lat":"41.274479503311","lng":"1.9924810948396"}},"105699":{"busLines":{"L95":["I"]},"marker":{"city":"Castelldefels","name":"Av. del canal ol\u00edmpic (acc\u00e9s canal ol\u00edmpic) dir. castelldefels","lat":"41.278977116084","lng":"1.9913734020667"}},"106714":{"busLines":{"L95":["I"],"L99":["I"],"N16":["V"]},"marker":{"city":"Castelldefels","name":"Av. constituci\u00f3 (pl. colom-narcis monturiol)","lat":"41.286907790801","lng":"1.9867144011448"}},"106711":{"busLines":{"L95":["I"],"L96":["V"],"L97":["I"],"N14":["I"]},"marker":{"city":"Castelldefels","name":"\"rda. ram\u00f3n otero (major-\"\"esgl\u00e9sia\"\")\"","lat":"41.289235863351","lng":"1.9871375197159"}},"106712":{"busLines":{"L95":["I"],"L96":["V"],"L97":["I"],"N14":["I"]},"marker":{"city":"Castelldefels","name":"\"rda. ram\u00f3n otero (\"\"general casta\u00f1os\"\"-antonio machado)\"","lat":"41.290913705695","lng":"1.9850908315491"}},"107486":{"busLines":{"L95":["I"],"L96":["V"],"L97":["I"],"N14":["I"]},"marker":{"city":"Castelldefels","name":"Agustina d'arag\u00f3 (pl. amistat-ram\u00f3n y cajal)","lat":"41.291029289042","lng":"1.9830341088139"}},"100043":{"busLines":{"L95":["I"],"L96":["V"],"L97":["I"],"N14":["I"]},"marker":{"city":"Castelldefels","name":"Agustina d'arag\u00f3 (garcia lorca-ptge. pilar)","lat":"41.289772786172","lng":"1.9810858882175"}},"105736":{"busLines":{"L95":["I"],"L96":["V"],"L97":["I"],"N14":["I"]},"marker":{"city":"Castelldefels","name":"\"dr. mara\u00f1on (pl. joan xxiii-\"\"dante\"\")\"","lat":"41.286125645086","lng":"1.9814828699262"}},"105701":{"busLines":{"L95":["I"],"L96":["V"],"L97":["I"],"N14":["I"]},"marker":{"city":"Castelldefels","name":"Bisbe urquinaona (dante-dr. barraquer)","lat":"41.285466895058","lng":"1.980804418142"}},"107136":{"busLines":{"L95":["I"],"L96":["V"],"L97":["I"],"L99":["I"],"N14":["I"]},"marker":{"city":"Castelldefels","name":"\"santiago rusi\u00f1ol (av. primer de maig-\"\"pintor serrasanta\"\")\"","lat":"41.282846172038","lng":"1.9768732238936"}},"105705":{"busLines":{"L95":["I"],"L96":["V"],"L97":["I"],"L99":["I"]},"marker":{"city":"Castelldefels","name":"Dr. ferran (arcadi balaguer-llibertat)","lat":"41.280805397698","lng":"1.9771933429768"}},"108777":{"busLines":{"L95":["I"]},"marker":{"city":"Castelldefels","name":"Molinot (av. pineda-val\u00e8ncia)","lat":"41.277321861928","lng":"1.9789493000621"}},"108778":{"busLines":{"L95":["I"]},"marker":{"city":"Castelldefels","name":"\"av. ciutat de m\u00e0laga (canyes-\"\"pg. pitort\"\")\"","lat":"41.273899523547","lng":"1.9765845703225"}},"105209":{"busLines":{"L95":["I"],"L96":["V"],"N16":["I"]},"marker":{"city":"Castelldefels","name":"Av. de la pineda (pg. pitort-granada)","lat":"41.273481260069","lng":"1.982141502567"}},"105211":{"busLines":{"L95":["V"],"L96":["I"],"N16":["V"]},"marker":{"city":"Castelldefels","name":"\"av. de la pineda (arag\u00f3-\"\"pg. pitort\"\")\"","lat":"41.273762180385","lng":"1.9821078384982"}},"108779":{"busLines":{"L95":["V"]},"marker":{"city":"Castelldefels","name":"\"av. ciutat de m\u00e0laga (sevilla-\"\"corunya\"\")\"","lat":"41.273920048365","lng":"1.9767554173707"}},"108780":{"busLines":{"L95":["V"]},"marker":{"city":"Castelldefels","name":"Molinot (parc dels tallinaires-av. pineda)","lat":"41.277225486905","lng":"1.9789246409105"}},"107090":{"busLines":{"L95":["V"],"L96":["I"],"L97":["V"],"L99":["V"]},"marker":{"city":"Castelldefels","name":"Dr. ferran (llibertat-arcadi balaguer)","lat":"41.280939362942","lng":"1.9771309491913"}},"105703":{"busLines":{"L95":["V"],"L96":["I"],"L97":["V"]},"marker":{"city":"Castelldefels","name":"Santiago rusi\u00f1ol (pintor serrasanta-av. primer de maig)","lat":"41.282910996021","lng":"1.9771099754663"}},"105704":{"busLines":{"L95":["V"],"L96":["I"],"L97":["V"],"N14":["V"]},"marker":{"city":"Castelldefels","name":"Bisbe urquinaona (albert einstein-tom\u00e0s edison)","lat":"41.284731325361","lng":"1.980024441841"}},"107128":{"busLines":{"L95":["V"],"L96":["I"],"L97":["V"],"N14":["V"]},"marker":{"city":"Castelldefels","name":"Pl. joan xxiii (bisbe urquinaona-juan de la cierva)","lat":"41.287233631139","lng":"1.9819193438759"}},"106770":{"busLines":{"L95":["V"],"L96":["I"],"L97":["V"],"N14":["V"]},"marker":{"city":"Castelldefels","name":"Dr. mara\u00f1\u00f3n (agustina d'arag\u00f3-pl. democr\u00e0cia)","lat":"41.289490268804","lng":"1.9811771303518"}},"107483":{"busLines":{"L95":["V"],"L96":["I"],"L97":["V"],"N14":["V"]},"marker":{"city":"Castelldefels","name":"\"antonio machado (narc\u00eds monturiol-\"\"mollet\"\")\"","lat":"41.290520424341","lng":"1.9839267776085"}},"107484":{"busLines":{"L95":["V"],"L96":["I"],"L97":["V"],"N14":["V"]},"marker":{"city":"Castelldefels","name":"Rda. ram\u00f3n otero (antonio machado-general casta\u00f1os)","lat":"41.290644166202","lng":"1.9851924143771"}},"106972":{"busLines":{"L95":["V"],"L96":["I"],"L97":["V"],"N14":["V"]},"marker":{"city":"Castelldefels","name":"\"rda. ram\u00f3n otero (general palafox-\"\"esgl\u00e8sia\"\")\"","lat":"41.289438454794","lng":"1.9866147184008"}},"106973":{"busLines":{"L95":["V"],"L99":["V"],"N16":["I"]},"marker":{"city":"Castelldefels","name":"\"av. constituci\u00f3 (narcis monturiol-\"\"pl. colom\"\")\"","lat":"41.286560314787","lng":"1.9859320461288"}},"105700":{"busLines":{"L95":["V"]},"marker":{"city":"Castelldefels","name":"Av. del canal ol\u00edmpic (campus pmt)","lat":"41.277720055407","lng":"1.9911544807213"}},"106974":{"busLines":{"L95":["V"]},"marker":{"city":"Castelldefels","name":"\"av. del canal ol\u00edmpic (\"\"pg. pitort\"\"-arag\u00f3)\"","lat":"41.274735331336","lng":"1.9922623889221"}},"109561":{"busLines":{"L95":["V"]},"marker":{"city":"Castelldefels","name":"\"pg. de la marina (\"\"carrer 17\"\"-carrer 18)\"","lat":"41.269480813071","lng":"1.9936175450942"}},"109563":{"busLines":{"L95":["V"]},"marker":{"city":"Castelldefels","name":"\"pg. tramuntana (\"\"carrer 22\"\"-carrer 23)\"","lat":"41.270337648493","lng":"2.0010547442184"}},"109580":{"busLines":{"L95":["V"]},"marker":{"city":"Gav\u00e0","name":"\"av. europa (\"\"llevant\"\"-alcanar)\"","lat":"41.270330898337","lng":"2.0023371624313"}},"109564":{"busLines":{"L95":["V"]},"marker":{"city":"Gav\u00e0","name":"\"av. europa (alcanar-\"\"sitges\"\")\"","lat":"41.270296150977","lng":"2.0049457432766"}},"109565":{"busLines":{"L95":["V"]},"marker":{"city":"Gav\u00e0","name":"Av. europa (tamarit-salou)","lat":"41.270378703676","lng":"2.0111319163915"}},"109566":{"busLines":{"L95":["V"]},"marker":{"city":"Gav\u00e0","name":"\"av. europa (\"\"palafrugell\"\"-garraf)\"","lat":"41.270819668474","lng":"2.0159101536493"}},"109567":{"busLines":{"L95":["V"]},"marker":{"city":"Gav\u00e0","name":"\"av. europa (garraf-\"\"av. del mar\"\")\"","lat":"41.271183995593","lng":"2.0199609407091"}},"100523":{"busLines":{"L95":["V"]},"marker":{"city":"Gav\u00e0","name":"\"av. europa (\"\"roses\"\"-palam\u00f2s)\"","lat":"41.271499220187","lng":"2.0231724313774"}},"100199":{"busLines":{"L95":["V"]},"marker":{"city":"Gav\u00e0","name":"\"av. europa (blanes-\"\"cadaqu\u00e9s\"\")\"","lat":"41.272205632203","lng":"2.0298636393675"}},"100520":{"busLines":{"L95":["V"]},"marker":{"city":"Gav\u00e0","name":"\"av. europa (arenys-\"\"premi\u00e0\"\")\"","lat":"41.272537190319","lng":"2.0336339705695"}},"109360":{"busLines":{"L95":["V"]},"marker":{"city":"Gav\u00e0","name":"\"av. europa (premi\u00e0-\"\"begur\"\")\"","lat":"41.272659087465","lng":"2.0354637764425"}},"000334":{"busLines":{"L95":["V"],"N16":["V"]},"marker":{"city":"L'hospitalet de llobregat","name":"Av. granvia (davant rbla. marina dir.bcn)","lat":"41.349253974327","lng":"2.1144919471495"}},"000389":{"busLines":{"L95":["V"],"N16":["V"]},"marker":{"city":"Barcelona","name":"\"gran via c. c. (m\u00e8xic-\"\"pl. espanya\"\")\"","lat":"41.376139387713","lng":"2.1496303163468"}},"001559":{"busLines":{"L95":["V"],"N14":["V"],"N16":["V"]},"marker":{"city":"Barcelona","name":"Gran via c. c. (llan\u00e7\u00e0-vilamar\u00ed)","lat":"41.378244880345","lng":"2.1524166999029"}},"001254":{"busLines":{"L95":["V"],"N14":["V"],"N16":["V"]},"marker":{"city":"Barcelona","name":"Gran via c. c. (enten\u00e7a-rocafort)","lat":"41.380217605389","lng":"2.1548239241952"}},"001556":{"busLines":{"L95":["V"],"N14":["V"],"N16":["V"]},"marker":{"city":"Barcelona","name":"Gran via c. c. (cal\u00e0bria-viladomat)","lat":"41.381942646189","lng":"2.1570566768982"}},"001469":{"busLines":{"L95":["V"],"N14":["V"],"N16":["V"]},"marker":{"city":"Barcelona","name":"Gran via c. c. (comte borrell-comte d'urgell)","lat":"41.383600534663","lng":"2.1593161734918"}},"000927":{"busLines":{"L95":["V"],"N14":["V"],"N16":["V"]},"marker":{"city":"Barcelona","name":"\"gran via c. c. (casanova-\"\"muntaner\"\")\"","lat":"41.386104782807","lng":"2.1626190439209"}},"001075":{"busLines":{"L95":["V"],"N14":["V"],"N16":["V"]},"marker":{"city":"Barcelona","name":"Gran via c. c. (pl. universitat)","lat":"41.387931720284","lng":"2.1650644192569"}},"105212":{"busLines":{"L96":["I"],"N16":["V"]},"marker":{"city":"Castelldefels","name":"Av. de la pineda (sota pont autopista dir. bcn)","lat":"41.277227243118","lng":"1.9801653062452"}},"109291":{"busLines":{"L96":["I"],"L97":["V"],"L99":["I"],"N14":["V"],"N16":["V"]},"marker":{"city":"Castelldefels","name":"Av. constituci\u00f3 (montserrat roig-av. habana vieja)","lat":"41.289354093333","lng":"1.98995308851"}},"101769":{"busLines":{"L96":["I"],"L97":["V"],"L99":["I"],"N14":["V"],"N16":["V"]},"marker":{"city":"Gav\u00e0","name":"\"c\u00aa. bcn a sta. creu calafell (\"\"limit t. municipal\"\"-isaac peral)\"","lat":"41.29003659379","lng":"1.9909271255084"}},"101767":{"busLines":{"L96":["I"],"L97":["V"],"L99":["I"],"N14":["V"],"N16":["V"]},"marker":{"city":"Gav\u00e0","name":"\"c\u00aa. bcn a sta. creu calafell (terme municipal-\"\"isaac peral\"\")\"","lat":"41.291929958115","lng":"1.993496469752"}},"101910":{"busLines":{"L96":["I"]},"marker":{"city":"Sant boi de llobregat","name":"\"rda. st. ramon (c\u00aa. bcn a sta creu calafell-\"\"crist\u00f2for colom\"\")\"","lat":"41.335740048797","lng":"2.0429537896108"}},"107130":{"busLines":{"L96":["I"]},"marker":{"city":"Sant boi de llobregat","name":"\"rda. st. ramon (mn. antoni solanas-\"\"av. onze de setembre\"\")\"","lat":"41.337165977687","lng":"2.0409474434184"}},"106405":{"busLines":{"L96":["I"]},"marker":{"city":"Sant boi de llobregat","name":"Av. onze de setembre (isaac alb\u00e9niz-blai net)","lat":"41.339494283821","lng":"2.0420343516635"}},"103606":{"busLines":{"L96":["I"]},"marker":{"city":"Sant boi de llobregat","name":"Pl. catalunya (tres d'abril)","lat":"41.34205469749","lng":"2.0433307560146"}},"106892":{"busLines":{"L96":["I"]},"marker":{"city":"Sant boi de llobregat","name":"\"francesc maci\u00e0 (\"\"cerdanya\"\"-mari\u00e0 fortuny)\"","lat":"41.343733214416","lng":"2.0422270122445"}},"102286":{"busLines":{"L96":["I"]},"marker":{"city":"Sant boi de llobregat","name":"Francesc maci\u00e0 (mari\u00e0 fortuny-jaume i)","lat":"41.344926370141","lng":"2.0412868813238"}},"102734":{"busLines":{"L96":["I"]},"marker":{"city":"Sant boi de llobregat","name":"Llu\u00eds pascual roca (anselm clav\u00e9-v\u00edctor balaguer)","lat":"41.347035765411","lng":"2.0371333562457"}},"105180":{"busLines":{"L96":["I"]},"marker":{"city":"Sant boi de llobregat","name":"\"riera bast\u00e9 (\"\"llu\u00eds castells\"\"-francesc pi i margall)\"","lat":"41.348103545562","lng":"2.0369235189707"}},"105181":{"busLines":{"L96":["I"]},"marker":{"city":"Sant boi de llobregat","name":"Riera bast\u00e9 (francesc pi i margall-ptge. puigcerd\u00e0)","lat":"41.349261187891","lng":"2.0380752705763"}},"105156":{"busLines":{"L96":["I"]},"marker":{"city":"Sant boi de llobregat","name":"\"carles mart\u00ed i vil\u00e0 (\"\"miguel de cervantes\"\"-nou)\"","lat":"41.350141400467","lng":"2.0397110571846"}},"107965":{"busLines":{"L96":["I"]},"marker":{"city":"Sant boi de llobregat","name":"Josep torras i bages (davant est. fgc sant boi)","lat":"41.349646291306","lng":"2.0444451681448"}},"109115":{"busLines":{"L96":["I","V"]},"marker":{"city":"Sant boi de llobregat","name":"Av. maria girona (estaci\u00f3 fgc)","lat":"41.349747403644","lng":"2.0447720904664"}},"101477":{"busLines":{"L96":["V"]},"marker":{"city":"Sant boi de llobregat","name":"\"carles mart\u00ed i vil\u00e0 (\"\"doctor antoni pujadas\"\"-pablo picasso)\"","lat":"41.350378802851","lng":"2.0402779391705"}},"105451":{"busLines":{"L96":["V"]},"marker":{"city":"Sant boi de llobregat","name":"Riera bast\u00e9 (francesc pi i margall-raurich)","lat":"41.348120260134","lng":"2.0367250871619"}},"102736":{"busLines":{"L96":["V"]},"marker":{"city":"Sant boi de llobregat","name":"Llu\u00eds pascual roca (pl. alfons ramirez)","lat":"41.346814259657","lng":"2.0371869983173"}},"102961":{"busLines":{"L96":["V"]},"marker":{"city":"Sant boi de llobregat","name":"\"moss\u00e8n jacint verdaguer (\"\"pare pere de piera\"\"-torre figueras)\"","lat":"41.344702861805","lng":"2.039457540705"}},"109314":{"busLines":{"L96":["V"]},"marker":{"city":"Sant boi de llobregat","name":"Av. onze de setembre (jacint verdaguer-pau claris)","lat":"41.341040737373","lng":"2.0424925178314"}},"106406":{"busLines":{"L96":["V"]},"marker":{"city":"Sant boi de llobregat","name":"Av. onze de setembre (blai net-isaac alb\u00e9niz)","lat":"41.339525606647","lng":"2.0419449718684"}},"109169":{"busLines":{"L96":["V"]},"marker":{"city":"Sant boi de llobregat","name":"Rda. st. ramon (joventut-ignasi barrquer)","lat":"41.336954684622","lng":"2.0409946396105"}},"104029":{"busLines":{"L96":["V"]},"marker":{"city":"Sant boi de llobregat","name":"\"rda. st. ramon (\"\"doctor ignasi barraquer\"\"-barcelona)\"","lat":"41.336310709599","lng":"2.0419811744943"}},"101770":{"busLines":{"L96":["V"],"L97":["I"],"L99":["V"],"N14":["I"],"N16":["I"]},"marker":{"city":"Gav\u00e0","name":"\"c\u00aa. bcn a sta. creu de calafell (\"\"c\u00ed. can quatre\"\"-l\u00edmit terme municipal)\"","lat":"41.292163841569","lng":"1.9935759264989"}},"107122":{"busLines":{"L96":["V"],"L97":["I"],"L99":["V"],"N14":["I"],"N16":["I"]},"marker":{"city":"Gav\u00e0","name":"\"c\u00aa. bcn a sta. creu de calafell (c\u00ed. can quatre-\"\"l\u00edmit terme municipal\"\")\"","lat":"41.290255048872","lng":"1.9909973141959"}},"109290":{"busLines":{"L96":["V"],"L97":["I"],"L99":["V"],"N14":["I"],"N16":["I"]},"marker":{"city":"Castelldefels","name":"Av. constituci\u00f3 (av. habana vieja-montserrat roig)","lat":"41.289330672088","lng":"1.9897127362549"}},"105210":{"busLines":{"L96":["V"],"N16":["I"]},"marker":{"city":"Castelldefels","name":"Av. de la pineda (sota pont autopista dir. bellamar)","lat":"41.276509603093","lng":"1.9801974827795"}},"105911":{"busLines":{"L97":["I","V"]},"marker":{"city":"Barcelona","name":"Pl. reina m\u00aa cristina (gran via carles iii).","lat":"41.390831479767","lng":"2.1286916479142"}},"458":{"busLines":{"L97":["I"]},"marker":{"city":"Barcelona","name":"\"av. diagonal (\"\"av. pedralbes\"\"-fernando primo de rivera)\"","lat":"41.388825215316","lng":"2.1226723702303"}},"105349":{"busLines":{"L97":["I"]},"marker":{"city":"Barcelona","name":"\"av. diagonal (fernando primo de rivera-\"\"t.coronel valenzuela\"\")\"","lat":"41.387829989997","lng":"2.1188159715117"}},"2541":{"busLines":{"L97":["I"]},"marker":{"city":"Barcelona","name":"\"av. diagonal (\"\"alfambra\"\"-gonz\u00e1lez tablas)\"","lat":"41.38661187862","lng":"2.1141236337032"}},"250":{"busLines":{"L97":["I"]},"marker":{"city":"Barcelona","name":"Av. diagonal (gonzalez tablas-manuel ballb\u00e9)","lat":"41.385892595257","lng":"2.1111174205044"}},"109134":{"busLines":{"L97":["I"],"N16":["I"]},"marker":{"city":"Sant boi de llobregat","name":"\"av. marina (\"\"av. mare de d\u00e9u de n\u00faria\"\"-progr\u00e9s)\"","lat":"41.323130011077","lng":"2.036125016975"}},"107932":{"busLines":{"L97":["I"],"N16":["I"]},"marker":{"city":"Viladecans","name":"Av. progr\u00e9s (andorra-c\u00aa. de barcelona)","lat":"41.324048441379","lng":"2.0314052830755"}},"106993":{"busLines":{"L97":["I"]},"marker":{"city":"Castelldefels","name":"\"av. constituci\u00f3 (dr. ferran-\"\"dr. fleming\"\")\"","lat":"41.279842174079","lng":"1.9782488075069"}},"100421":{"busLines":{"L97":["I"]},"marker":{"city":"Castelldefels","name":"Av. constituci\u00f3 (av. 300-av. 301)","lat":"41.27842633849","lng":"1.9766373904117"}},"100416":{"busLines":{"L97":["I"]},"marker":{"city":"Castelldefels","name":"Av. constituci\u00f3 (av. 305-av. 309)","lat":"41.273187491947","lng":"1.9700100114472"}},"109576":{"busLines":{"L97":["I"]},"marker":{"city":"Castelldefels","name":"Ca n'aimeric (direcci\u00f3 bellamar)","lat":"41.272987850448","lng":"1.9654929774818"}},"100429":{"busLines":{"L97":["I"]},"marker":{"city":"Castelldefels","name":"Av. constituci\u00f3 (raconada-pg. dels pins)","lat":"41.269825715787","lng":"1.9624022262167"}},"100418":{"busLines":{"L97":["I"]},"marker":{"city":"Castelldefels","name":"\"av. constituci\u00f3 (\"\"pg. brollador\"\"-av. bellamar)\"","lat":"41.269294647173","lng":"1.9580006246078"}},"109575":{"busLines":{"L97":["V"]},"marker":{"city":"Castelldefels","name":"Ca n'aimeric (direcci\u00f3 barcelona)","lat":"41.272657773423","lng":"1.9654125829271"}},"109640":{"busLines":{"L97":["V"]},"marker":{"city":"Castelldefels","name":"Av. constituci\u00f3 (passat ramal del ferrocarril)","lat":"41.273175729693","lng":"1.9703072325151"}},"100425":{"busLines":{"L97":["V"]},"marker":{"city":"Castelldefels","name":"Av. constituci\u00f3 (davant av. 302-av. 301)","lat":"41.277883365298","lng":"1.9761781299624"}},"107933":{"busLines":{"L97":["V"],"N16":["V"]},"marker":{"city":"Viladecans","name":"Av. progr\u00e9s (c\u00aa. de barcelona-andorra)","lat":"41.323838790715","lng":"2.0313924839202"}},"109133":{"busLines":{"L97":["V"],"N16":["V"]},"marker":{"city":"Sant boi de llobregat","name":"\"av. marina (progr\u00e9s-\"\"av. mare de d\u00e9u de n\u00faria\"\")\"","lat":"41.323011840039","lng":"2.0362873488681"}},"309":{"busLines":{"L97":["V"]},"marker":{"city":"Barcelona","name":"Av. diagonal (av. albert bastardas-torre melina)","lat":"41.385117159801","lng":"2.1089747943076"}},"310":{"busLines":{"L97":["V"]},"marker":{"city":"Barcelona","name":"\"av. diagonal (torre melina-\"\"av. dr. mara\u00f1on\"\")\"","lat":"41.386058012494","lng":"2.112702725354"}},"2542":{"busLines":{"L97":["V"]},"marker":{"city":"Barcelona","name":"\"av. diagonal (adolf florensa-\"\"pascual i vila\"\")\"","lat":"41.386890472473","lng":"2.1166967196375"}},"2543":{"busLines":{"L97":["V"]},"marker":{"city":"Barcelona","name":"\"av. diagonal (\"\"mart\u00ed i franqu\u00e8s\"\"-pl. pius xii)\"","lat":"41.387679316409","lng":"2.1198108968858"}},"492":{"busLines":{"L97":["V"]},"marker":{"city":"Barcelona","name":"Av. diagonal (pl. pius xii costat mar)","lat":"41.388720698335","lng":"2.1238813204171"}},"108719":{"busLines":{"L97":["V"]},"marker":{"city":"Barcelona","name":"Av. diagonal (abans gran via carles iii)","lat":"41.389718795611","lng":"2.1277908052454"}},"100428":{"busLines":{"L99":["I"],"N16":["V"]},"marker":{"city":"Barcelona","name":"Av. constituci\u00f3 (pl. estaci\u00f3)","lat":"41.28102336694","lng":"1.9794985772203"}},"109204":{"busLines":{"L99":["I"],"N16":["V"]},"marker":{"city":"Barcelona","name":"Av. constituci\u00f3 (passat ptge. albert einstein)","lat":"41.283472623286","lng":"1.9820894826766"}},"109250":{"busLines":{"L99":["I","V"]},"marker":{"city":"El prat de llobregat","name":"Acc\u00e9s a l'aeroport (aparcaments empleats t1)","lat":"41.293744993927","lng":"2.0552240009326"}},"109198":{"busLines":{"L99":["I","V"]},"marker":{"city":"El prat de llobregat","name":"Aeroport (terminal t1-l99 n17)","lat":"41.28917831778","lng":"2.0744935856397"}},"108522":{"busLines":{"L99":["V"],"N16":["I"]},"marker":{"city":"Castelldefels","name":"Av. constituci\u00f3 (isaac peral-albert einstein)","lat":"41.283466916088","lng":"1.9819004426792"}},"105207":{"busLines":{"L99":["V"],"N16":["I"]},"marker":{"city":"Castelldefels","name":"\"av. constituci\u00f3 (\"\"av. santa maria\"\"-dr. trueta)\"","lat":"41.281264836266","lng":"1.9795323698543"}},"109203":{"busLines":{"L99":["V"],"N14":["I","V"]},"marker":{"city":"Castelldefels","name":"Santiago rusi\u00f1ol (abans dr. trueta)","lat":"41.283154683266","lng":"1.977381168109"}},"106639":{"busLines":{"VB1":["I"],"VB2":["I"]},"marker":{"city":"Viladecans","name":"\"pg. de la marina (av. segle xxi-\"\"jaume i\"\")\"","lat":"41.316382629231","lng":"2.0263203418307"}},"106640":{"busLines":{"VB1":["I"],"VB2":["I"]},"marker":{"city":"Viladecans","name":"Pg. de la marina (jaume balmes-ctra. barcelona)","lat":"41.318544712969","lng":"2.0237221767405"}},"109245":{"busLines":{"VB1":["I"],"VB2":["I"]},"marker":{"city":"Viladecans","name":"Eslida (mari\u00e0 sanjuan-av. lloren\u00e7 puig tom\u00e0s)","lat":"41.323770092789","lng":"2.0193105592954"}},"109246":{"busLines":{"VB1":["I"],"VB2":["I"]},"marker":{"city":"Viladecans","name":"\u00e0ngel ara\u00f1\u00f3 (sant ramon-sant mari\u00e0)","lat":"41.322425340094","lng":"2.01747863238"}},"109247":{"busLines":{"VB1":["I"],"VB2":["I"]},"marker":{"city":"Viladecans","name":"\u00e0ngel ara\u00f1\u00f3 (nord-dr. reig)","lat":"41.320709205613","lng":"2.0150573575243"}},"109248":{"busLines":{"VB1":["I"],"VB2":["I"]},"marker":{"city":"Viladecans","name":"\u00e0ngel ara\u00f1\u00f3 (dos de maig-av. josep tarradellas)","lat":"41.31930401191","lng":"2.0131072615576"}},"108830":{"busLines":{"VB1":["I"]},"marker":{"city":"Viladecans","name":"Av. josep tarradellas (ernest lluch-av. llu\u00eds mor\u00e9)","lat":"41.316141229032","lng":"2.0152998833029"}},"108831":{"busLines":{"VB1":["I"]},"marker":{"city":"Viladecans","name":"\"av. llu\u00eds mor\u00e9 (av. j. tarradellas-\"\"ferran i clua\"\")\"","lat":"41.314839094319","lng":"2.0142749027212"}},"108833":{"busLines":{"VB1":["I"]},"marker":{"city":"Viladecans","name":"Av. llu\u00eds mor\u00e9 (dotze d'octubre-hispanitat)","lat":"41.313331847884","lng":"2.0118105016092"}},"108834":{"busLines":{"VB1":["I"],"N14":["V"]},"marker":{"city":"Viladecans","name":"\"av. can batllori (\"\"av. llu\u00eds mor\u00e9\"\"-parr\u00f2quia)\"","lat":"41.313148818979","lng":"2.009459598912"}},"106650":{"busLines":{"VB1":["I"]},"marker":{"city":"Viladecans","name":"\"comer\u00e7 (margarides-\"\"av. can palmer\"\")\"","lat":"41.313242555596","lng":"2.007420122782"}},"106651":{"busLines":{"VB1":["I"]},"marker":{"city":"Viladecans","name":"Av. can palmer (montserrat roig-prat riba)","lat":"41.313909008331","lng":"2.005836948469"}},"106652":{"busLines":{"VB1":["I"]},"marker":{"city":"Viladecans","name":"\"av. riera st. lloren\u00e7 (\"\"josep pla i casadevall\"\"-salvador dal\u00ed)\"","lat":"41.313485617393","lng":"2.0020088681484"}},"106653":{"busLines":{"VB1":["I"]},"marker":{"city":"Viladecans","name":"\"av. riera st. lloren\u00e7 (\"\"salvador dal\u00ed\"\"-ildefons cerd\u00e0)\"","lat":"41.313774389905","lng":"1.9996067262774"}},"106625":{"busLines":{"VB1":["I"]},"marker":{"city":"Viladecans","name":"\"av. riera st. lloren\u00e7 (ildefons cerd\u00e0-\"\"av. miguel cervantes\"\")\"","lat":"41.314076459385","lng":"1.9971805730345"}},"107297":{"busLines":{"VB1":["I","V"]},"marker":{"city":"Viladecans","name":"\"av. miguel de cervantes (\"\"can guardiola\"\"-maria zambrano)\"","lat":"41.316000081493","lng":"1.9985236667342"}},"107300":{"busLines":{"VB1":["V"]},"marker":{"city":"Viladecans","name":"Orqu\u00eddies (av. can palmer-pensaments)","lat":"41.316463612898","lng":"2.0027461086526"}},"107301":{"busLines":{"VB1":["V"],"N14":["V"]},"marker":{"city":"Viladecans","name":"\"orqu\u00eddies (av. central d'alba-rosa-ginesta\"\")\"","lat":"41.318026603516","lng":"2.0049449616375"}},"107303":{"busLines":{"VB1":["V"]},"marker":{"city":"Viladecans","name":"Av. ballester (canonge dr. auguet-salvador baron\u00e9)","lat":"41.319472901252","lng":"2.0095501129353"}},"106633":{"busLines":{"VB1":["V"],"VB2":["V"]},"marker":{"city":"Viladecans","name":"\"av. josep tarradellas (\"\"mare d\u00e9u de motserrat\"\"-prat de la riba)\"","lat":"41.319203666877","lng":"2.0119869310236"}},"109179":{"busLines":{"VB1":["V"],"VB2":["V"]},"marker":{"city":"Viladecans","name":"Mare de d\u00e9u de sales (av. josep tarradellas - dos de maig)","lat":"41.318717059106","lng":"2.0139309752259"}},"109180":{"busLines":{"VB1":["V"],"VB2":["V"]},"marker":{"city":"Viladecans","name":"Mare de d\u00e9u de sales (doctor reig - pere massallach)","lat":"41.320235807429","lng":"2.0160634608444"}},"109181":{"busLines":{"VB1":["V"],"VB2":["V"]},"marker":{"city":"Viladecans","name":"Mare de d\u00e9u de sales (sant mari\u00e0 - sant ramon)","lat":"41.321795247252","lng":"2.0182528465826"}},"109182":{"busLines":{"VB1":["V"],"VB2":["V"]},"marker":{"city":"Viladecans","name":"Av. francesc maci\u00e0 (abans santa teresa)","lat":"41.321289260248","lng":"2.0209826027853"}},"106636":{"busLines":{"VB1":["V"],"VB2":["V"]},"marker":{"city":"Viladecans","name":"\"pg. de la marina (\"\"jaume balmes\"\"-rierot)\"","lat":"41.318107341748","lng":"2.0241045815038"}},"107305":{"busLines":{"VB1":["V"],"VB2":["V"]},"marker":{"city":"Viladecans","name":"\"pg. de la marina (jaume i-\"\"parellades\"\")\"","lat":"41.316295399276","lng":"2.0262074103756"}},"107306":{"busLines":{"VB2":["I"]},"marker":{"city":"Viladecans","name":"Mare d\u00e9u de montserrat (av. j. tarradellas-av. ballester)","lat":"41.31907100572","lng":"2.011036980703"}},"107307":{"busLines":{"VB2":["I"]},"marker":{"city":"Viladecans","name":"Av. ballester (canonge dr. auguet-pablo gargallo)","lat":"41.319978808185","lng":"2.0093498848988"}},"107311":{"busLines":{"VB2":["I"]},"marker":{"city":"Viladecans","name":"Av. central d'alba-rosa (pg. de la falguera-orqu\u00eddies)","lat":"41.318009678629","lng":"2.0043939969331"}},"107312":{"busLines":{"VB2":["I"]},"marker":{"city":"Viladecans","name":"Prat de la riba (margarides-lliri)","lat":"41.315280532899","lng":"2.005955388922"}},"106628":{"busLines":{"VB2":["I"]},"marker":{"city":"Viladecans","name":"\"av. can palmer (\"\"av. merc\u00e8 rodoreda\"\"-av. rosa de luxemburg)\"","lat":"41.313900703216","lng":"2.0054605405558"}},"107313":{"busLines":{"VB2":["V"]},"marker":{"city":"Viladecans","name":"\"av. llu\u00eds mor\u00e9 (\"\"frederic mompou\"\"-ferran i clua)\"","lat":"41.313585399975","lng":"2.0124913883479"}},"107314":{"busLines":{"VB2":["V"]},"marker":{"city":"Viladecans","name":"\"av. llu\u00eds mor\u00e9 (\"\"ferran i clua\"\"-av. j. tarradellas)\"","lat":"41.314800625643","lng":"2.0144813800821"}},"107315":{"busLines":{"VB2":["V"]},"marker":{"city":"Viladecans","name":"Av. josep tarradellas (anselm clav\u00e9-jaume abril)","lat":"41.316554057741","lng":"2.0152349356717"}},"000007":{"busLines":{"N14":["I"],"N16":["I"]},"marker":{"city":"Barcelona","name":"\"pl. universitat (balmes-\"\"aribau\"\")\"","lat":"41.387776763364","lng":"2.1644141064441"}},"000167":{"busLines":{"N14":["I"],"N16":["I"]},"marker":{"city":"Barcelona","name":"Gran via c. c. (muntaner-ptge. valeri serra)","lat":"41.386321458484","lng":"2.1624371218826"}},"001468":{"busLines":{"N14":["I"],"N16":["I"]},"marker":{"city":"Barcelona","name":"Gran via c. c. (villarroel-comte d\u00b4urgell)","lat":"41.384674839684","lng":"2.1602248847075"}},"000206":{"busLines":{"N14":["I"],"N16":["I"]},"marker":{"city":"Barcelona","name":"Gran via c. c. (viladomat-cal\u00e0bria)","lat":"41.382131049878","lng":"2.1568443295323"}},"000774":{"busLines":{"N14":["I"],"N16":["I"]},"marker":{"city":"Barcelona","name":"Gran via c. c. (enten\u00e7a-vilamar\u00ed)","lat":"41.379312291174","lng":"2.1531142723874"}},"003236":{"busLines":{"N14":["I"],"N16":["I"]},"marker":{"city":"Barcelona","name":"\"gran via c. c. (llan\u00e7\u00e0-\"\"pl. espanya\"\")\"","lat":"41.377524612079","lng":"2.1507404641143"}},"000180":{"busLines":{"N14":["I"]},"marker":{"city":"Barcelona","name":"Creu coberta pl.espanya bejar","lat":"41.377093094616","lng":"2.1486265106577"}},"000181":{"busLines":{"N14":["I"]},"marker":{"city":"Barcelona","name":"Creu coberta (torre damians-callao)","lat":"41.377151286157","lng":"2.145625159592"}},"001365":{"busLines":{"N14":["I"]},"marker":{"city":"Barcelona","name":"Sants (watt-premi\u00e0)","lat":"41.377233361773","lng":"2.1404134814681"}},"001364":{"busLines":{"N14":["I"]},"marker":{"city":"Barcelona","name":"Sants (alcolea-pg. sant antoni)","lat":"41.377311102828","lng":"2.1376622737643"}},"001767":{"busLines":{"N14":["I"]},"marker":{"city":"Barcelona","name":"Sants (joan g\u00fcell-panissars)","lat":"41.377334250206","lng":"2.1354544679474"}},"001768":{"busLines":{"N14":["I"]},"marker":{"city":"Barcelona","name":"\"sants (riera d'escuder-\"\"rbla. brasil\"\")\"","lat":"41.377441110668","lng":"2.1321297671389"}},"001756":{"busLines":{"N14":["I"]},"marker":{"city":"Barcelona","name":"\"sants (\"\"st. feliu de gu\u00edxols\"\"-portbou)\"","lat":"41.377405554645","lng":"2.1299810842013"}},"000856":{"busLines":{"N14":["I"]},"marker":{"city":"Barcelona","name":"\"arizala (\"\"roger\"\"-av. madrid)\"","lat":"41.378316180869","lng":"2.126201239464"}},"001373":{"busLines":{"N14":["I"]},"marker":{"city":"Barcelona","name":"\"arizala (\"\"felipe de paz\"\"-trav. de les corts)\"","lat":"41.380369778457","lng":"2.1247690310052"}},"001713":{"busLines":{"N14":["I"]},"marker":{"city":"Barcelona","name":"\"trav. de les corts (aurora bertrana-\"\"pintor tapir\u00f3\"\")\"","lat":"41.378900388518","lng":"2.1209101548452"}},"001438":{"busLines":{"N14":["I"]},"marker":{"city":"Barcelona","name":"Collblanc (c\u00ed. torre melina-ptge. torre melina)","lat":"41.377827451252","lng":"2.112680294277"}},"001725":{"busLines":{"N14":["I"]},"marker":{"city":"L'hospitalet de llobregat","name":"Ctra. collblanc (gravina-av. severo ochoa)","lat":"41.378355999493","lng":"2.1026362364438"}},"001726":{"busLines":{"N14":["I"]},"marker":{"city":"Esplugues de llobregat","name":"\"laure\u00e0 mir\u00f3 (\"\"rda. de dalt\"\"-st. lloren\u00e7)\"","lat":"41.378773338353","lng":"2.0966734955284"}},"000590":{"busLines":{"N14":["I"]},"marker":{"city":"Esplugues de llobregat","name":"Laure\u00e0 mir\u00f3 (st. lloren\u00e7-av. pa\u00efsos catalans)","lat":"41.37897676799","lng":"2.0937003137256"}},"002706":{"busLines":{"N14":["I"]},"marker":{"city":"Esplugues de llobregat","name":"Av. cornell\u00e0 (emili juncadella-mestre j. rosal)","lat":"41.378228989605","lng":"2.0887137612071"}},"001411":{"busLines":{"N14":["I"]},"marker":{"city":"Esplugues de llobregat","name":"\"av. cornell\u00e0 (eduad toldr\u00e0-\"\"av. isidre mart\u00ed\"\")\"","lat":"41.37551526896","lng":"2.0857858452248"}},"000644":{"busLines":{"N14":["I"]},"marker":{"city":"Esplugues de llobregat","name":"\"av. cornell\u00e0 (mil\u00e0 i pi-\"\"josep argem\u00ed\"\")\"","lat":"41.373641615602","lng":"2.0839709694538"}},"000645":{"busLines":{"N14":["I"]},"marker":{"city":"Esplugues de llobregat","name":"\"av. cornell\u00e0 (gall-\"\"av. baix llobregat\"\")\"","lat":"41.37148879615","lng":"2.0818264232672"}},"109278":{"busLines":{"N14":["I"]},"marker":{"city":"Sant boi de llobregat","name":"Jaume balmes (abans pl. europa)","lat":"41.337568726098","lng":"2.0463013430238"}},"104761":{"busLines":{"N14":["I"]},"marker":{"city":"Viladecans","name":"\"av. llu\u00eds mor\u00e9 (\"\"av. can palmer\"\"-av. ra. st. lloren\u00e7)\"","lat":"41.311973365696","lng":"2.0096143979826"}},"103590":{"busLines":{"N14":["I"]},"marker":{"city":"Gav\u00e0","name":"Rbla. pompeu fabra (pl. batista i roca-av. l'erampruny\u00e0)","lat":"41.310282772572","lng":"2.0051912582842"}},"107066":{"busLines":{"N14":["V"]},"marker":{"city":"Gav\u00e0","name":"Riera st. lloren\u00e7 (passat av. joan xxiii)","lat":"41.311907567218","lng":"2.0049421500134"}},"003119":{"busLines":{"N14":["V"]},"marker":{"city":"Cornell\u00e0 de llobregat","name":"\"ctra. de sant boi (\"\"campoamor\"\"-doctor mart\u00ed i juli\u00e0)\"","lat":"41.357287346464","lng":"2.0659087035442"}},"003120":{"busLines":{"N14":["V"]},"marker":{"city":"Cornell\u00e0 de llobregat","name":"C\u00aa. d'esplugues (pius xii-pl. esgl\u00e9sia)","lat":"41.358043799345","lng":"2.071166937263"}},"003131":{"busLines":{"N14":["V"]},"marker":{"city":"Cornell\u00e0 de llobregat","name":"\"c\u00aa. d'esplugues (rbla. josep anselm clav\u00e9-\"\"josep cuxart\"\")\"","lat":"41.357770920001","lng":"2.0726433251654"}},"003122":{"busLines":{"N14":["V"]},"marker":{"city":"Cornell\u00e0 de llobregat","name":"\"c\u00aa. d'esplugues  (\"\"catalunya\"\"-av. del parc)\"","lat":"41.360245779186","lng":"2.0734118303699"}},"001200":{"busLines":{"N14":["V"]},"marker":{"city":"Cornell\u00e0 de llobregat","name":"\"c\u00aa. d'esplugues (\"\"la miranda\"\"-pare marchena)\"","lat":"41.363047868021","lng":"2.0738719102712"}},"001201":{"busLines":{"N14":["V"]},"marker":{"city":"Cornell\u00e0 de llobregat","name":"C\u00aa. d'esplugues (pl. del sol)","lat":"41.366691636613","lng":"2.0774247664341"}},"000643":{"busLines":{"N14":["V"]},"marker":{"city":"Cornell\u00e0 de llobregat","name":"\"c\u00aa. d'esplugues (\"\"garrigues\"\"-av. st. ildefons)\"","lat":"41.369467815304","lng":"2.0801204394149"}},"000151":{"busLines":{"N14":["V"]},"marker":{"city":"Esplugues de llobregat","name":"Av. cornell\u00e0 (montesa-ptge. j. cervera)","lat":"41.371440483775","lng":"2.0821536639909"}},"108557":{"busLines":{"N14":["V"]},"marker":{"city":"Esplugues de llobregat","name":"Av. cornell\u00e0 (francesc layret-sant gabriel)","lat":"41.373057826524","lng":"2.0837027249685"}},"000748":{"busLines":{"N14":["V"]},"marker":{"city":"Esplugues de llobregat","name":"Av. cornell\u00e0 (pl. sardana-carme)","lat":"41.374652614001","lng":"2.0852421451775"}},"001460":{"busLines":{"N14":["V"]},"marker":{"city":"Esplugues de llobregat","name":"Av. cornell\u00e0 (dr. manuel riera i piera-mestre joan corrales)","lat":"41.376646992201","lng":"2.0872850712112"}},"001461":{"busLines":{"N14":["V"]},"marker":{"city":"Esplugues de llobregat","name":"Av. cornell\u00e0 (abans laure\u00e0 mir\u00f3)","lat":"41.378631608079","lng":"2.0899021049183"}},"001034":{"busLines":{"N14":["V"]},"marker":{"city":"Esplugues de llobregat","name":"Laure\u00e0 mir\u00f3 (pau claris-antoni m\u00aa gallissa)","lat":"41.378797121642","lng":"2.093114871094"}},"000771":{"busLines":{"N14":["V"]},"marker":{"city":"Esplugues de llobregat","name":"\"laure\u00e0 mir\u00f3 (\"\"mol\u00ed\"\"-pl. jacinto benavente)\"","lat":"41.378475070659","lng":"2.0976157005712"}},"000906":{"busLines":{"N14":["V"]},"marker":{"city":"L'hospitalet de llobregat","name":"\"c\u00aa. collblanc (\"\"av. tom\u00e1s gim\u00e9nez\"\"-gral. manso)\"","lat":"41.377991081905","lng":"2.1045195973513"}},"000324":{"busLines":{"N14":["V"]},"marker":{"city":"L'hospitalet de llobregat","name":"C\u00aa. collblanc (abans alb\u00e9niz)","lat":"41.377770565235","lng":"2.1071046263864"}},"001439":{"busLines":{"N14":["V"]},"marker":{"city":"L'hospitalet de llobregat","name":"C\u00aa. collblanc (passat av. josep molins)","lat":"41.377690026993","lng":"2.1102912109975"}},"001239":{"busLines":{"N14":["V"]},"marker":{"city":"L'hospitalet de llobregat","name":"\"c\u00aa. collblanc (progr\u00e9s-\"\"ptge. costa\"\")\"","lat":"41.377504758173","lng":"2.1209989954982"}},"001755":{"busLines":{"N14":["V"]},"marker":{"city":"Barcelona","name":"Sants (riera blanca-munn\u00e9)","lat":"41.377456396447","lng":"2.1239504854685"}},"001766":{"busLines":{"N14":["V"]},"marker":{"city":"Barcelona","name":"\"sants (\"\"sugranyes\"\"-begur)\"","lat":"41.377317714565","lng":"2.1289620605892"}},"000707":{"busLines":{"N14":["V"]},"marker":{"city":"Barcelona","name":"Sants (tinent flomesta-riera tena)","lat":"41.377222865323","lng":"2.1330264751136"}},"000708":{"busLines":{"N14":["V"]},"marker":{"city":"Barcelona","name":"\"sants (st. jordi-\"\"jocs florals\"\")\"","lat":"41.377186613878","lng":"2.1354445780523"}},"000584":{"busLines":{"N14":["V"]},"marker":{"city":"Barcelona","name":"Sants (olzinelles-pas fructu\u00f3s gelabert)","lat":"41.377114132691","lng":"2.1378519517106"}},"000179":{"busLines":{"N14":["V"]},"marker":{"city":"Barcelona","name":"Sants (guadiana-gayarre)","lat":"41.377063788223","lng":"2.1407086121606"}},"000391":{"busLines":{"N14":["V"]},"marker":{"city":"Barcelona","name":"Creu coberta (hostafrancs-st. roc)","lat":"41.376953039566","lng":"2.1459498460949"}},"000392":{"busLines":{"N14":["V"]},"marker":{"city":"Barcelona","name":"Creu coberta (cap de guaita-pl. espanya)","lat":"41.376901690543","lng":"2.1485503466709"}},"104721":{"busLines":{"N16":["I"]},"marker":{"city":"El prat de llobregat","name":"Av. josep anselm clav\u00e9 (rda. llevant-les moreres)","lat":"41.335709624002","lng":"2.1011811824751"}},"100712":{"busLines":{"N16":["I"]},"marker":{"city":"El prat de llobregat","name":"\"av. josep anselm clav\u00e9 (\"\"enric borr\u00e0s\"\"-joan maragall)\"","lat":"41.334373154317","lng":"2.097941612288"}},"107617":{"busLines":{"N16":["I"]},"marker":{"city":"El prat de llobregat","name":"\"joan maragall (ignasi iglesias-\"\"pintor isidre nonell\"\")\"","lat":"41.33267615561","lng":"2.0978231004617"}},"000901":{"busLines":{"N16":["I"]},"marker":{"city":"El prat de llobregat","name":"C\u00aa. de la marina (lo gaiter del llobregat-ptge. ar\u00fas)","lat":"41.331046732085","lng":"2.0995370729424"}},"001015":{"busLines":{"N16":["I"]},"marker":{"city":"El prat de llobregat","name":"\"av. verge de montserrat (\"\"enric  morera\"\"-sant pere)\"","lat":"41.328742463992","lng":"2.0986545532879"}},"109171":{"busLines":{"N16":["I"]},"marker":{"city":"El prat de llobregat","name":"\"coronel sanfeliu (\"\"av. mare de d\u00e9u de montserrat\"\"-narc\u00eds monturiol)\"","lat":"41.32704044335","lng":"2.0952479901615"}},"109172":{"busLines":{"N16":["I"]},"marker":{"city":"El prat de llobregat","name":"Coronel sanfeliu (t\u00e0rrega-lleida)","lat":"41.324591864469","lng":"2.0970700046371"}},"001153":{"busLines":{"N16":["I"]},"marker":{"city":"El prat de llobregat","name":"Lleida (pl. catalunya)","lat":"41.323470384746","lng":"2.0944411444377"}},"001043":{"busLines":{"N16":["I"]},"marker":{"city":"El prat de llobregat","name":"\"av. remolar (\"\"pirineus\"\"-av. onze de setembre)\"","lat":"41.321698249776","lng":"2.0913951821415"}},"002379":{"busLines":{"N16":["I"]},"marker":{"city":"El prat de llobregat","name":"\"av. onze de setembre (pl. pirineus-\"\"dolores ibarruri\"\")\"","lat":"41.321350300858","lng":"2.0875553022401"}},"002371":{"busLines":{"N16":["I"]},"marker":{"city":"El prat de llobregat","name":"Av. onze de setembre (roure-ronda ponent)","lat":"41.320185570761","lng":"2.0831613845612"}},"109141":{"busLines":{"N16":["I"]},"marker":{"city":"Castelldefels","name":"\"pg. mar\u00edtim (uruguai-\"\"ptge. penyeta\"\")\"","lat":"41.26645300743","lng":"1.9458758565203"}},"109142":{"busLines":{"N16":["V"]},"marker":{"city":"Castelldefels","name":"\"pg. mar\u00edtim (cova fumada-\"\"ptge. penyeta\"\")\"","lat":"41.266302937485","lng":"1.9453837857705"}},"002375":{"busLines":{"N16":["V"]},"marker":{"city":"El prat de llobregat","name":"\"av. onze de setembre (riu anoia-\"\"riu llobregat\"\")\"","lat":"41.320058656132","lng":"2.0832901342553"}},"002380":{"busLines":{"N16":["V"]},"marker":{"city":"El prat de llobregat","name":"Av. onze de setembre (riu t\u00faria-riu x\u00faquer)","lat":"41.321252259787","lng":"2.0874902248088"}},"002571":{"busLines":{"N16":["V"]},"marker":{"city":"El prat de llobregat","name":"Av. remolar (av. onze de setembre-girona)","lat":"41.321570751464","lng":"2.0918065582022"}},"001155":{"busLines":{"N16":["V"]},"marker":{"city":"El prat de llobregat","name":"\"lleida (tortosa-\"\"c\u00aa. l'aviaci\u00f3\"\")\"","lat":"41.323382567176","lng":"2.0945965235388"}},"109173":{"busLines":{"N16":["V"]},"marker":{"city":"El prat de llobregat","name":"Coronel sanfeliu (lleida-ciutat consuegra)","lat":"41.324578918946","lng":"2.097224814273"}},"109174":{"busLines":{"N16":["V"]},"marker":{"city":"El prat de llobregat","name":"Coronel sanfeliu (narc\u00eds monturiol-av. verge de montserrat)","lat":"41.327051629695","lng":"2.0954951617251"}},"001442":{"busLines":{"N16":["V"]},"marker":{"city":"El prat de llobregat","name":"\"av. verge de montserrat (frederic soler-\"\"enric morera\"\")\"","lat":"41.328660836906","lng":"2.0989520992009"}},"000745":{"busLines":{"N16":["V"]},"marker":{"city":"El prat de llobregat","name":"Manuel bertrand (maurici vilomara-sant joaquim)","lat":"41.331241350537","lng":"2.0974559844351"}},"001097":{"busLines":{"N16":["V"]},"marker":{"city":"El prat de llobregat","name":"\"av. josep anselm clav\u00e9 (\"\"manuel bertrand\"\"-joan maragall)\"","lat":"41.333537086676","lng":"2.0960418230529"}},"000608":{"busLines":{"N16":["V"]},"marker":{"city":"El prat de llobregat","name":"\"av. josep anselm clav\u00e9 (\"\"enric borras\"\"-el prat)\"","lat":"41.334478683807","lng":"2.0983469741054"}},"001553":{"busLines":{"N16":["V"]},"marker":{"city":"El prat de llobregat","name":"\"av. josep anselm clav\u00e9 (\"\"moreres\"\"-rda. llevant)\"","lat":"41.335762271223","lng":"2.1016031555125"}}},"busLinesWithMarkers":{"L80":["105118","000421","000907","000895","000183","003023","003024","002965","000092","002966","001434","001612","001789","100209","100220","101565","108758","101566","102055","107293","101762","100558","100556","100562","106377","106466","101772","107107","107141","106514","106386","106387","103931","103930","103933","109121","109122","109123","109124","100502","101851","106825","106826","107117","101658","104747","101657","101656","100567","100565","108665","100574","109218","101765","101764","104780","107118","109143","104756","109258","107116","000917","000916","000091","002968","002969","000472","002970","002971","000185","002363","001173","000868","000941","001310","105118"],"L81":["105118","000421","000907","000895","000183","003023","003024","002965","000092","002966","001434","001612","001789","100209","101749","106069","107320","103632","101666","101665","101669","101662","101677","104771","106178","100558","100556","100562","106377","106466","101772","107107","107141","106514","106386","106387","103931","103930","103933","109121","109122","109123","109124","100502","101851","106825","106826","107117","101658","104747","101657","101656","100567","100565","108665","100574","101676","101675","101661","101660","101670","101671","105176","101752","104726","109257","107116","917","916","91","2968","2969","472","2970","2971","185","2363","1173","868","941","1310"],"L82":["109188","104436","104433","104440","104435","102151","102152","101323","108188","101334","106865","101549","101552","000598","000599","000357","109237","003040","101655","101654","106070","103632","101666","101665","101669","101662","101677","104771","106178","100558","100556","100562","106377","106466","101772","107107","107141","106514","106386","106387","103931","103930","103933","107072","107458","107064","107065","100502","101851","106825","106826","107117","101658","104747","101657","101656","100567","100565","108665","100574","101676","101675","101661","101660","101670","101671","101664","105158","000902","104166","000609","000597","101720","101719","101717","106867","106868","106869","102158","103684","102154","102155","104249","104248","104250","104437","109188"],"L85":["109188","104436","104433","104440","104435","109226","109227","109228","100716","100005","102200","104196","101888","101107","000352","003038","001197","001653","001654","109269","109237","003040","101655","101654","106070","103632","101666","101665","101669","101662","101677","104771","106178","100558","100556","100562","106377","106466","101772","107107","107141","106514","106386","106387","107064","107065","100502","101851","106825","106826","107117","101658","104747","101657","101656","100567","100565","108665","100574","101676","101675","101661","101660","101670","101671","101664","105158","3119","3120","3131","3122","1200","1201","643","1202","101112","105108","102915","102201","109222","109223","109224","109225","102155","104249"],"L86":["105121","421","907","895","183","3023","3024","2965","92","2966","1434","1612","1789","100209","101749","106069","107320","103632","101666","101665","101669","101662","101677","104771","106225","106226","106227","102040","106766","106767","101129","101128","107309","107120","105448","100401","100356","100355","100355","100358","102847","100866","104769","104770","106768","106769","101760","106228","106229","104381","100574","101676","101675","101661","101660","101670","101671","105176","101752","104726","109257","107116","917","916","91","2968","2969","472","2970","2971","185","2363","1173","868","941","1310","105121"],"L87":["105121","421","907","895","183","3023","3024","2965","92","2966","1434","1612","1789","100209","100220","101565","108758","101566","102055","107293","101762","100574","106225","106226","106227","102040","106766","106767","101129","101128","105469","105470","100401","100356","100355","100355","100358","102847","100866","104769","104770","106768","106769","101760","106228","106229","104381","109218","101765","101764","104780","107118","109143","104756","109258","107116","917","916","91","2968","2969","472","2970","2971","185","2363","1173","868","941","1310","105121"],"L88":["106233","107996","109217","101762","100574","106225","106226","106227","102040","106766","107131","107134","107135","109293","109294","109500","109500","109550","109295","109264","109260","107133","107132","107121","106769","101760","106228","106229","104381","100574","109218","101765","106233"],"L94":["108935","105416","109046","1255","776","108","421","907","895","183","3023","3024","2965","92","2966","1434","1611","1612","1789","100209","100220","107140","100214","100215","100222","100216","100377","107476","100385","105215","105216","103291","103287","107123","103290","107124","106967","100423","101008","106968","103304","105081","105086","105083","105083","105082","105084","106977","106444","100516","107001","103289","103299","105218","101480","105557","105217","107000","100380","100204","107137","100205","104756","109258","107116","917","916","334","91","2968","2969","472","2970","2971","185","2363","1173","868","941","1310","389","1559","1254","1556","1469","927","1075","108935"],"L95":["108935","105416","109046","001255","000776","000108","000421","000907","000895","000183","003023","003024","002965","000092","002966","001434","001611","001612","001789","100209","100220","107140","100214","109557","105624","106471","106472","100518","100521","100522","100524","106469","100525","108845","108846","106962","107138","105699","106714","106711","106712","107486","100043","105736","105701","107136","105705","108777","108778","105209","105215","105216","103291","103287","107123","103290","107124","106967","100423","101008","106968","106444","106968","106444","100516","107001","103289","103299","105218","101480","105557","105217","105211","108779","108780","107090","105703","105704","107128","106770","107483","107484","106972","106973","105700","106974","109561","109563","109580","109564","109565","109566","109567","100523","100199","100520","109360","107137","100205","104756","109258","107116","000917","000916","000334","000091","002968","002969","000472","002970","002971","000185","002363","001173","000868","000941","001310","000389","001559","001254","001556","001469","000927","001075","108935"],"L96":["100516","107001","103289","103299","105218","101480","105557","105217","105211","105212","107090","105703","105704","107128","106770","107483","107484","106972","109291","101769","101767","101658","104747","101657","101656","100567","100565","108665","100574","101676","101675","101661","101660","101670","101910","107130","106405","103606","106892","102286","102734","105180","105181","105156","107965","109115","109115","101477","105451","102736","102961","109314","106406","109169","104029","101666","101665","101669","101662","101677","104771","106178","100558","100556","100562","106377","106466","101772","101770","107122","109290","106711","106712","107486","100043","105736","105701","107136","105705","105210","105209","105215","105216","103291","103287","107123","103290","107124","100516"],"L97":["105911","458","105349","2541","250","109134","107932","101677","104771","106178","100558","100556","100562","106377","106466","101772","101770","107122","109290","106711","106712","107486","100043","105736","105701","107136","105705","106993","100421","100416","109576","100429","100418","100516","100516","109575","109640","100425","107090","105703","105704","107128","106770","107483","107484","106972","109291","101769","101767","101658","104747","101657","101656","100567","100565","108665","100574","101676","101675","107933","109133","309","310","2542","2543","492","108719","105911"],"L99":["107136","105705","100428","109204","106714","109291","101769","101767","101658","104747","101657","101656","100567","100565","108665","100574","109218","101765","101764","104780","107118","109143","109250","109198","109250","109198","101565","108758","101566","102055","107293","101762","100558","100556","100562","106377","106466","101772","101770","107122","109290","106973","108522","105207","107090","109203"],"VB1":["106233","107996","106639","106640","106225","106226","109245","109246","109247","109248","108830","108831","108833","108834","106650","106651","106652","106653","106625","107297","107297","107300","107301","100866","107303","106633","109179","109180","109181","109182","106229","106636","107305","109217","101765","106233"],"VB2":["106233","107996","106639","106640","106225","106226","109245","109246","109247","109248","107306","107307","107309","107120","105448","107311","100401","107312","106628","100355","100355","107313","107314","107315","106633","109179","109180","109181","109182","106229","106636","107305","109217","101765","106233"],"N14":["108935","000007","000167","001468","000206","000774","003236","000180","000181","001365","001364","001767","001768","001756","000856","001373","001713","001438","001725","001726","000590","002706","001411","000644","000645","001197","001653","001654","109269","109237","003040","101655","101654","106070","109278","103632","101666","101665","101669","101662","101677","104771","106225","106226","106227","102040","106766","106767","101129","101128","105469","105470","100401","100356","104761","103590","103931","103930","103933","100502","101851","106825","106826","107117","101770","107122","109290","106711","106712","107486","100043","105736","105701","107136","109203","109203","105704","107128","106770","107483","107484","106972","109291","101769","101767","107107","107141","106514","106386","106387","107066","108834","100358","102847","107301","100866","104769","104770","106768","106769","101760","106228","106229","104381","100574","101676","101675","101661","101660","101670","101671","101664","105158","003119","003120","003131","003122","001200","001201","000643","000151","108557","000748","001460","001461","001034","000771","000906","000324","001439","001239","001755","001766","000707","000708","000584","000179","000391","000392","001559","001254","001556","001469","000927","001075","108935"],"N16":["108935","000007","000167","001468","000206","000774","003236","000108","000421","000907","000895","000183","003023","003024","002965","000092","002966","001434","001611","001612","001789","104721","100712","107617","000901","001015","109171","109172","001153","001043","002379","002371","109134","107932","101677","104771","106178","100558","100556","100562","106377","106466","101772","101770","107122","109290","106973","108522","105207","105210","105209","105215","105216","103291","103287","107123","103290","107124","109141","106444","100516","100516","100423","101008","106968","109142","107001","103289","103299","105218","101480","105557","105217","105211","105212","100428","109204","106714","109291","101769","101767","101658","104747","101657","101656","100567","100565","108665","100574","101676","101675","107933","109133","002375","002380","002571","001155","109173","109174","001442","000745","001097","000608","001553","000917","000916","000334","000091","002968","002969","000472","002970","002971","000185","002363","001173","000868","000941","001310","000389","001559","001254","001556","001469","000927","001075","108935"]}}